No,주소,경도,위도
1,서울특별시 강남구 언주로 425,127.0430597,37.50111997
2,서울특별시 강남구 강남대로 538,127.0222696,37.51022148
3,서울특별시 강남구 강남대로 584,127.0206186,37.51393288
4,서울특별시 강남구 테헤란로 125,127.031675,37.49960058
5,서울특별시 강남구 남부순환로 2947,127.0626611,37.49457368
6,서울특별시 강남구 봉은사로 619,127.0631168,37.5150272
7,서울특별시 강남구 논현로 834,127.0286164,37.52283441
8,서울특별시 강남구 영동대로 513,127.0591588,37.51182403
9,서울특별시 강남구 테헤란로 518,127.060579,37.5075906
10,서울특별시 강남구 언주로 861,127.0331147,37.52740187
11,서울특별시 강남구 광평로 281,127.1030685,37.48811622
12,서울특별시 강남구 남부순환로 2621,127.036622,37.48525466
13,서울특별시 강남구 테헤란로 409,127.0503859,37.5053586
14,서울특별시 강남구 봉은사로 446,127.0485161,37.51136686
15,서울특별시 강남구 봉은사로2길 39,127.0266657,37.50211794
16,서울특별시 강남구 영동대로 513,127.0591588,37.51182403
17,서울특별시 강남구 학동로 419,127.0459756,37.51830442
18,서울특별시 강남구 도곡로 205,127.0413619,37.49291553
19,서울특별시 강남구 강남대로 390,127.0285791,37.49784071
20,서울특별시 강남구 도곡로 457,127.0601768,37.49900032
21,서울특별시 강남구 영동대로 720,127.056459,37.52218404
22,서울특별시 강남구 압구정로30길 17,127.0295536,37.52632982
23,서울특별시 강남구 압구정로12길 32,127.0225254,37.52189732
24,서울특별시 강남구 도산대로57길 24,127.0418352,37.52525474
25,서울특별시 강남구 강남대로 328,127.0309215,37.49242836
26,서울특별시 강남구 도산대로 328,127.0379696,37.52240609
27,서울특별시 강남구 삼성로 402,127.0588373,37.50337259
28,서울특별시 강남구 테헤란로 505,127.0574379,37.50756652
29,서울특별시 강남구 논현로 752,127.0286445,37.51916042
30,서울특별시 강남구 도산대로 108,127.02066,37.51619888
31,서울특별시 강남구 남부순환로 2909,127.0574106,37.49218246
32,서울특별시 강남구 언주로 650,127.0357533,37.51491948
33,서울특별시 강남구 도산대로 458,127.0468733,37.52377009
34,"""서울특별시 강남구 도곡로 408,""",127.0552329,37.49662142
35,서울특별시 강남구 역삼로 123,127.0330085,37.49415489
36,서울특별시 강남구 영동대로 513,127.0591588,37.51182403
37,"""서울특별시 강남구 논현로175길 94,""",127.0216436,37.52319739
38,"""서울특별시 강남구 테헤란로 211,""",127.0392423,37.50188824
39,"""서울특별시 강남구 테헤란로 134,""",127.0338033,37.49937465
40,"""서울특별시 강남구 강남대로 456,""",127.025571,37.50313767
41,"""서울특별시 강남구 도산대로 532,""",127.0515926,37.52434577
42,서울특별시 강남구 테헤란로87길 33,127.0579295,37.50982852
43,"""서울특별시 강남구 영동대로86길 12,""",127.0651883,37.50782398
44,서울특별시 강남구 논현로 704,127.0307637,37.51460457
45,서울특별시 강남구 도곡로 511,127.0622392,37.49963442
46,"""서울특별시 강남구 테헤란로 305,""",127.0437808,37.5033401
47,"""서울특별시 강남구 언주로30길 57,""",127.0540048,37.4894735
48,"""서울특별시 강남구 테헤란로 443,""",127.055598,37.5069512
49,"""서울특별시 강남구 테헤란로64길 18,""",127.0512043,37.50378316
50,"""서울특별시 강남구 압구정로 170,""",127.0281079,37.52676004
51,서울특별시 강남구 압구정로42길 32,127.0347344,37.52684266
52,서울특별시 강남구 논현로 401,127.0388978,37.49592216
53,"""서울특별시 강남구 테헤란로 223,""",127.0406738,37.50240201
54,"""서울특별시 강남구 선릉로 669,""",127.0412551,37.51660624
55,"""서울특별시 강남구 남부순환로 2936,""",127.0619167,37.49334957
56,서울특별시 강남구 논현로 88,127.0451293,37.47781318
57,서울특별시 강남구 테헤란로 142,127.0349542,37.49974423
58,서울특별시 강남구 영동대로 215,127.0685197,37.49799786
59,서울특별시 강남구 봉은사로 407,127.0445721,37.51078053
60,서울특별시 강남구 삼성로 605,127.052717,37.51348418
61,서울특별시 강남구 논현로 508,127.0373359,37.50199454
62,서울특별시 강남구 논현로 841,127.0279063,37.52406193
63,"""서울특별시 강남구 테헤란로 334,""",127.0485269,37.50394422
64,서울특별시 강남구 밤고개로1길 10,127.1018445,37.48802413
65,서울특별시 강남구 영동대로 616,127.0602045,37.51524741
66,서울특별시 강남구 도곡로 183,127.0394097,37.49223759
67,"""서울특별시 강남구 봉은사로 213,""",127.0353652,37.50804844
68,서울특별시 강남구 학동로 506,127.051451,37.51869039
69,서울특별시 강남구 언주로174길 29,127.0364376,37.52811919
70,"""서울특별시 강남구 봉은사로 304,""",127.0403958,37.50899995
71,서울특별시 강남구 강남대로 282,127.0324799,37.48855986
72,"""서울특별시 강남구 테헤란로2길 27,""",127.0296977,37.49649313
73,"""서울특별시 강남구 테헤란로 145,""",127.0351922,37.50071188
74,"""서울특별시 강남구 선릉로 836,""",127.0405329,37.52654196
75,서울특별시 강남구 테헤란로 306,127.0441014,37.50259438
76,"""서울특별시 강남구 삼성로86길 7,""",127.0579435,37.5057702
77,"""서울특별시 강남구 선릉로93길 22,""",127.0467429,37.50498747
78,서울특별시 강남구 테헤란로103길 9,127.063894,37.51004899
79,서울특별시 강남구 논현로 648,127.0322761,37.51159445
80,"""서울특별시 강남구 도산대로 134,""",127.0233854,37.5173613
81,서울특별시 강북구 삼양로 161,127.0211208,37.6183866
82,서울특별시 강북구 도봉로 365,127.0273826,37.64001009
83,서울특별시 강북구 도봉로 32,127.0307093,37.61184749
84,서울특별시 강북구 도봉로 342,127.0261292,37.63803564
85,서울특별시 강북구 도봉로 196,127.0265751,37.62614544
86,서울특별시 강서구 공항대로 248,126.8348945,37.55840572
87,서울특별시 강서구 공항대로 168,126.8261368,37.55927426
88,서울특별시 강서구 강서로 267,126.8359413,37.54959982
89,서울특별시 강서구 마곡동로 62,126.8338889,37.56055192
90,서울특별시 강서구 방화대로 375,126.8163862,37.57445535
91,서울특별시 강서구 마곡중앙로 161-17,126.8259614,37.56805908
92,서울특별시 강서구 마곡중앙6로 16,126.829006,37.56040151
93,서울특별시 강서구 양천로 476,126.8532724,37.56160051
94,서울특별시 강서구 등촌로 57,126.8631413,37.53500933
95,서울특별시 강서구 강서로 463,126.8404456,37.56694553
96,서울특별시 강서구 화곡로 142(화곡동)1522-3232,126.837553,37.5405675
97,서울특별시 강서구 공항대로 329,126.8443221,37.55826016
98,서울특별시 강서구 공항대로 627,126.8745377,37.54728564
99,서울특별시 강서구 강서로 388,126.8393078,37.56018695
100,"""서울특별시 강서구 양천로 559,""",126.8628104,37.5576752
101,서울특별시 강서구 강서로13길 3,126.846047,37.53229406
102,서울특별시 관악구 남부순환로 1908,126.9612054,37.47770365
103,서울특별시 관악구 관악로 158,126.952808,37.47931004
104,서울특별시 관악구 남부순환로 1419,126.9084171,37.48097319
105,서울특별시 관악구 남부순환로 1817,126.9521463,37.48164375
106,서울특별시 관악구 남부순환로 1948,126.9651316,37.4761881
107,서울특별시 관악구 남부순환로 2082-251522-3232,126.980999,37.4760417
108,"""서울특별시 관악구 보라매로3길 23,""",126.9255362,37.49104245
109,서울특별시 관악구 남부순환로 1619,126.9304963,37.48463754
110,서울특별시 관악구 신림로 355-1,126.9291724,37.48610036
111,"""서울특별시 관악구 신림로 330,""",126.9302351,37.48385209
112,서울특별시 관악구 남부순환로 1812,126.9513295,37.48111149
113,서울특별시 광진구 능동로 117,127.0711374,37.54160152
114,서울시 광진구 능동로243 1522-3232,127.076356,37.55194202
115,서울시 광진구 천호대로 676,127.0899305,37.55059168
116,서울특별시 광진구 광나루로 608,127.0952677,37.54115607
117,서울특별시 광진구 광나루로 519,127.0872121,37.54530478
118,서울특별시 광진구 아차산로 3551522-3232,126.925577,37.4911109
119,서울특별시 광진구 천호대로 548,127.0789368,37.55691888
120,"""서울특별시 광진구 아차산로 607,""",127.106048,37.54738032
121,서울특별시 광진구 아차산로 262,127.0729634,37.53700222
122,서울특별시 광진구 능동로 50,127.0691778,37.53567141
123,서울특별시 광진구 구의강변로 64,127.0931068,37.53599514
124,서울특별시 광진구 능동로 107,127.0707351,37.54069654
125,서울특별시 광진구 아차산로 373,127.0840327,37.53701135
126,서울특별시 광진구 아차산로 537-17,127.1002511,37.54315485
127,서울특별시 광진구 능동로 90,127.0709218,37.53836271
128,"""시흥대로73길 67 엠타워 112,113,114,115호1522-3232""",126.895748,37.4559437
129,서울특별시 금천구 가산디지털1로 171,126.8806786,37.48076227
130,서울특별시 금천구 시흥대로 426,126.8987725,37.47156959
131,서울특별시 금천구 시흥대로 164,126.9032312,37.44888351
132,서울특별시 금천구 벚꽃로 298,126.8838717,37.48144038
133,서울특별시 금천구 두산로 70,126.8956206,37.46896319
134,서울특별시 금천구 가산디지털1로 168,126.8826362,37.4799658
135,서울특별시 금천구 디지털로 188,126.8876759,37.47732744
136,서울특별시 금천구 벚꽃로 266,126.885081,37.47844625
137,서울특별시 금천구 가산디지털1로 128,126.8836949,37.47723689
138,"""서울특별시 금천구 디지털로9길 32,""",126.8875125,37.47951346
139,"""서울특별시 노원구 초안산로2라길26 월계동(104,105,106호)1522-3232""",127.056627,37.63015598
140,서울시 노원구 마들로3길 15,127.0619799,37.62650977
141,서울 노원구 노원로 449,127.0664411,37.65666808
142,서울특별시 노원구 동일로 1015,127.0742179,37.62074884
143,서울특별시 노원구 노원로 569,127.0561502,37.66065319
144,서울특별시 노원구 동일로 1081,127.0722727,37.62638078
145,서울특별시 노원구 화랑로 621,127.0908356,37.62906275
146,"""서울특별시 노원구 중계로 217,""",127.0759923,37.65050277
147,"""서울특별시 노원구 노해로 502,""",127.0636921,37.65444967
148,서울특별시 노원구 석계로 104,127.0607288,37.62318818
149,"""서울특별시 노원구 동일로 1339,""",127.0621815,37.64816176
150,"""서울특별시 노원구 동일로 1413,""",127.0600192,37.65476844
151,서울특별시 노원구 마들로3길 15,127.0619799,37.62650977
152,서울특별시 도봉구 노해로65길 4,127.0472179,37.65194614
153,서울특별시 도봉구 도봉로 480,127.0348851,37.64835023
154,서울특별시 동작구 노량진로 190,126.9468617,37.51295594
155,서울특별시 동작구 사당로 219,126.9726616,37.48416175
156,서울특별시 동작구 보라매로5길 35,126.923506,37.4920917
157,서울특별시 동작구 사당로 300,126.9802822,37.4843803
158,서울특별시 동작구 노량진로 134,126.9408806,37.51336602
159,서울특별시 동작구 상도로 102,126.9317759,37.49994197
160,서울특별시 동작구 흑석로 27 395,126.953724,37.5051272
161,서울특별시 동작구 상도로 354,126.9527265,37.49687712
162,서울특별시 동작구 사당로 4,126.9548541,37.49540648
163,"""서울특별시 동작구 동작대로 21,""",126.9813622,37.47848231
164,서울특별시 마포구 백범로 35,126.9388682,37.55174841
165,서울특별시 마포구 상암산로 76,126.8923142,37.57919483
166,서울특별시 마포구 토정로 295,126.9422151,37.54119812
167,서울특별시 마포구 양화로 125,126.9203101,37.55475038
168,서울특별시 마포구 마포대로 173-14,126.9536266,37.55099957
169,서울특별시 마포구 마포대로 130,126.952989,37.5459716
170,서울특별시 마포구 양화로 45,126.9141859,37.55076432
171,서울특별시 마포구 양화로 178,126.9252152,37.55750877
172,서울특별시 마포구 독막로 311,126.9479035,37.54383877
173,서울특별시 마포구 서강로 69,126.9316898,37.54942466
174,서울특별시 마포구 월드컵로1길 14,126.9120617,37.55004963
175,서울특별시 마포구 백범로 32 629,126.937273,37.551746
176,서울특별시 마포구 양화로 105,126.918577,37.55341345
177,서울특별시 마포구 월드컵북로54길 17,126.8885481,37.58132399
178,서울특별시 마포구 신촌로16길 10,126.9346768,37.55517824
179,서울특별시 마포구 상암산로 34,126.889197,37.576154
180,서울특별시 마포구 독막로 88,126.9232281,37.54751667
181,서울특별시 마포구 마포대로 86,126.9505782,37.54264236
182,서울특별시 마포구 양화로 78,126.9169221,37.55138736
183,서울특별시 마포구 백범로 23,126.937573,37.55245765
184,서울특별시 마포구 성암로 267,126.890989,37.58112363
185,"""서울특별시 마포구 양화로 165,""",126.9236197,37.55720923
186,"""서울특별시 마포구 월드컵북로 22,""",126.9200225,37.55689633
187,"""서울특별시 마포구 마포대로 201,""",126.9554965,37.5521969
188,"""서울특별시 마포구 와우산로 101,""",126.9248801,37.55333057
189,"""서울특별시 마포구 월드컵북로 375,""",126.8907234,37.57757431
190,"""서울특별시 마포구 마포대로 45,""",126.9463733,37.540473
191,서울특별시 마포구 마포대로 68,126.948962,37.54133238
192,서울특별시 마포구 와우산로 64,126.9232702,37.55021866
193,서울특별시 마포구 월드컵로 74,126.910726,37.55577887
194,서울특별시 마포구 백범로 212,126.9533658,37.54242887
195,서울특별시 마포구 양화로 45,126.9141859,37.55076432
196,서울 서대문구 가재울미래로 2,126.9178563,37.57436842
197,서울특별시 서대문구 신촌로 73,126.9345211,37.5563076
198,서울특별시 서대문구 연희로 97,126.9305175,37.56680481
199,서울특별시 서대문구 신촌로35길 10,126.9558993,37.55799893
200,서울특별시 서대문구 통일로 451,126.9438496,37.58866962
201,서울특별시 서대문구 연세로 50,126.9393616,37.56626802
202,서울특별시 서대문구 연희로 144,126.933891,37.57019089
203,서울특별시 서대문구 충정로 53,126.9646321,37.56375114
204,서울특별시 서대문구 연세로 4 4105,126.937032,37.5558544
205,서울특별시 서대문구 이화여대길 34,126.9459452,37.55845397
206,"""서울특별시 서대문구 연세로 50,""",126.9393616,37.56626802
207,서울특별시 서대문구 이화여대길 52,126.9467463,37.565059
208,서울특별시 서대문구 연세로 35,126.9367149,37.55873144
209,서울특별시 서대문구 신촌로 129,126.9403287,37.55656511
210,서울특별시 서대문구 충정로 23,126.962991,37.5612536
211,서울특별시 서대문구 성산로 565,126.9463413,37.56641814
212,"""서울특별시 서대문구 명물길 24,""",126.9381315,37.55779295
213,"""서울특별시 서대문구 서소문로 21,""",126.9640865,37.55989541
214,서울특별시 서초구 방배로 52,126.999435,37.47934444
215,서울특별시 서초구 강남대로 465,127.0241097,37.50375607
216,서울특별시 서초구 방배로 114,126.9960904,37.48433836
217,서울특별시 서초구 신반포로 176,127.0031918,37.50446765
218,서울특별시 서초구 반포대로21길 3,127.0090318,37.48830025
219,서울특별시 서초구 남부순환로 2557,127.0300701,37.48443892
220,서울특별시 서초구 강남대로 343,127.0292412,37.49352025
221,서울특별시 서초구 서초대로 43894,126.987057,37.4861789
222,서울특별시 서초구 강남대로 595,127.019537,37.51485238
223,서울특별시 서초구 신반포로 194,127.0068347,37.50643652
224,서울특별시 서초구 강남대로85길 5,127.0225954,37.50736657
225,서울특별시 서초구 방배로 211,126.990584,37.4919727
226,서울특별시 서초구 방배중앙로 162,126.9865679,37.49352953
227,서울특별시 서초구 서초대로 274,127.0119038,37.49281894
228,서울특별시 서초구 청계산로 203,127.0562965,37.44732532
229,서울특별시 서초구 방배천로 5-4,126.982163,37.4772943
230,서울특별시 서초구 사평대로 205,127.0078453,37.50449272
231,서울특별시 서초구 서초중앙로 138,127.0139641,37.49423915
232,서울특별시 서초구 강남대로 202,127.0368606,37.48232392
233,서울특별시 서초구 강남대로 557,127.0206396,37.51153878
234,서울특별시 서초구 동작대로 112,126.9827114,37.48651366
235,서울특별시 서초구 방배로 184,126.9924755,37.49001948
236,서울특별시 서초구 서초대로74길 29,127.0274265,37.49494274
237,서울특별시 서초구 남부순환로 2395,127.0123688,37.48067395
238,서울특별시 서초구 서초중앙로 225,127.011538,37.5016405
239,서울특별시 서초구 신반포로 176,127.0031918,37.50446765
240,서울특별시 서초구 서초대로78길 24,127.0277536,37.49554688
241,서울특별시 서초구 방배로 84,126.9976451,37.48199351
242,서울특별시 서초구 신반포로 257,127.0119367,37.50862097
243,"""서울특별시 서초구 서초중앙로 26,""",127.0169916,37.48468705
244,서울특별시 서초구 잠원로 69,127.0069708,37.51026001
245,"""서울특별시 서초구 서초대로77길 27,""",127.025501,37.50012235
246,서울특별시 서초구 서초중앙로 118,127.0142299,37.49239137
247,"""서울특별시 서초구 매헌로 16,""",127.0369592,37.46348131
248,서울특별시 서초구 강남대로 483,127.0236493,37.50532592
249,"""서울특별시 서초구 논현로 139,""",127.0425944,37.48199247
250,서울특별시 서초구 효령로 274,127.0142145,37.48439516
251,서울특별시 서초구 서래로 48,126.9985582,37.49926743
252,서울특별시 서초구 강남대로 399,127.0268441,37.49826985
253,서울특별시 서초구 반포대로 118,127.008614,37.490668
254,"""서울특별시 서초구 남부순환로323길 1,""",127.0135011,37.48113381
255,서울특별시 서초구 서초중앙로 164,127.0133804,37.49636846
256,"""서울특별시 서초구 서초대로 411,""",127.0259224,37.49810842
257,"""서울특별시 서초구 남부순환로339길 64,""",127.0215816,37.48592257
258,"""서울특별시 서초구 서초중앙로 64,""",127.0151697,37.48743883
259,"""서울특별시 서초구 서초대로77길 62,""",127.0239026,37.50272986
260,서울특별시 성북구 정릉로 376,127.0253197,37.60201933
261,서울 성북구 도봉로 17,127.0293661,37.61091042
262,서울특별시 성북구 종암로 17,127.0360861,37.59190066
263,서울특별시 성북구 동소문로 314,127.0293154,37.60761915
264,서울특별시 성북구 보문로34길 62,127.0188557,37.59083569
265,서울특별시 성북구 종암로 122,127.0339559,37.60120315
266,서울특별시 성북구 동소문로 10,127.0073329,37.58873084
267,"""서울특별시 성북구 화랑로 76,""",127.040464,37.60182806
268,서울특별시 성북구 고려대로 24길,127.0218824,37.58603931
269,"""서울특별시 성북구 동소문로 315,""",127.0287439,37.60839996
270,서울특별시 성북구 동소문로24길 12,127.0184195,37.59316055
271,서울특별시 성북구 고려대로 102-2,127.0307654,37.58610768
272,서울특별시 성북구 성북로 11,127.0049288,37.5890532
273,서울특별시 송파구 오금로 142,127.1102691,37.51082962
274,서울특별시 송파구 송파대로 345,127.1077046,37.49925109
275,서울특별시 송파구 올림픽로 289,127.1025223,37.51461439
276,서울특별시 송파구 송파대로 201,127.1206327,37.48782906
277,서울특별시 송파구 오금로 420,127.1362739,37.49698436
278,서울특별시 송파구 송파대로 111,127.1244338,37.48053682
279,서울특별시 송파구 송파대로 167,127.1209336,37.48466065
280,서울특별시 송파구 올림픽로35길 141,127.099089,37.5157732
281,서울특별시 송파구 위례광장로 230,127.1437577,37.47861592
282,서울특별시 송파구 오금로 241,127.1204843,37.50653527
283,서울특별시 송파구 오금로 87,127.1074255,37.51460933
284,서울특별시 송파구 위례성대로 38,127.1164965,37.51569147
285,서울특별시 송파구 법원로 55,127.1217616,37.47986462
286,서울특별시 송파구 송파대로 386,127.1103567,37.50227717
287,서울특별시 송파구 석촌호수로 176,127.096628,37.50637284
288,서울특별시 송파구 동남로 141,127.126254,37.49190546
289,서울특별시 송파구 중대로 68,127.1164382,37.49156636
290,서울특별시 송파구 위례성대로 102,127.1231367,37.51331748
291,"""서울특별시 송파구 마천로 53,""",127.1266569,37.5085492
292,서울특별시 송파구 석촌호수로 262,127.105237,37.50944176
293,"""서울특별시 송파구 올림픽로35가길 9,""",127.1034448,37.51748489
294,서울특별시 송파구 올림픽로 96,127.0812141,37.51146596
295,"""서울특별시 송파구 송파대로 562,""",127.0995029,37.5153241
296,"""서울특별시 송파구 올림픽로 212,""",127.094435,37.51150425
297,서울특별시 송파구 백제고분로 69,127.0790412,37.51053101
298,서울특별시 송파구 양재대로 1222,127.1326157,37.51645028
299,서울특별시 송파구 송파대로30길 13,127.1187827,37.49488195
300,"""서울특별시 송파구 백제고분로 358,""",127.1060928,37.50429226
301,"""서울특별시 송파구 중대로 121,""",127.1214114,37.49434733
302,서울특별시 송파구 충민로 10,127.1191064,37.47861672
303,서울특별시 양천구 목동동로 377,126.8788544,37.53533855
304,서울특별시 양천구 공항대로 566,126.8680646,37.54895589
305,서울특별시 양천구 목동동로 309,126.8760092,37.52914373
306,서울특별시 양천구 신월로 341,126.8588375,37.52201781
307,서울특별시 양천구 목동로 203,126.863806,37.52670465
308,서울특별시 양천구 오목로 279,126.8683919,37.52592824
309,서울특별시 양천구 목동서로 299,126.8688317,37.52057432
310,서울특별시 양천구 오목로 354,126.8767955,37.5239809
312,서울특별시 양천구 목동서로 213,126.8706165,37.52801772
313,서울특별시 양천구 오목로 300,126.8700223,37.52482946
314,"""서울특별시 양천구 목동동로 411,""",126.8873118,37.53778497
315,서울특별시 양천구 목동서로 67,126.8785492,37.53639603
316,"""서울특별시 양천구 목동동로 257,""",126.8744701,37.52650139
317,"""서울특별시 양천구 목동서로 155,""",126.875421,37.52994507
318,서울특별시 영등포구 영중로 15,126.9037164,37.51723357
319,서울특별시 영등포구 여의대방로 376,126.9313547,37.51818893
320,서울특별시 영등포구 경인로 870,126.9092829,37.51698329
321,서울특별시 영등포구 양평로 22,126.903932,37.53315475
322,서울특별시 영등포구 국제금융로 10,126.9261011,37.52595462
324,서울특별시 영등포구 국제금융로6길 38,126.9259953,37.52138533
325,서울특별시 영등포구 국회대로 786,126.9195948,37.53028085
326,서울특별시 영등포구 영중로 119,126.9051769,37.52684933
327,서울특별시 영등포구 여의공원로 101,126.924893,37.52927247
328,서울특별시 영등포구 의사당대로 8,126.9168951,37.52787104
329,서울특별시 영등포구 양평로 115,126.8945998,37.53729963
330,서울특별시 영등포구 의사당대로 83,126.9234522,37.52336836
331,서울특별시 영등포구 선유동2로 57,126.8968844,37.53382995
332,서울특별시 영등포구 국제금융로 86,126.9317998,37.52020559
333,서울특별시 영등포구 의사당대로 147,126.9278404,37.51882327
334,서울특별시 영등포구 신길로 137,126.9100723,37.50457669
335,서울특별시 영등포구 당산로 34,126.8964935,37.51746278
336,서울특별시 영등포구 양평로 64,126.899966,37.53514017
337,서울특별시 영등포구 국제금융로6길 7,126.9291074,37.52240434
338,서울특별시 영등포구 은행로 11,126.9202385,37.52791121
339,"""서울특별시 영등포구 영중로 9,""",126.9055669,37.51718999
340,서울특별시 영등포구 경인로 775,126.8975367,37.51474602
341,"""서울특별시 영등포구 당산로 231,""",126.9018682,37.5345223
342,서울특별시 영등포구 국제금융로2길 28,126.9244943,37.524081
343,서울특별시 영등포구 의사당대로 127,126.9264066,37.52024045
344,"""서울특별시 영등포구 선유로 64,""",126.8896806,37.51963274
345,"""서울특별시 영등포구 영중로 9,""",126.9055669,37.51718999
346,"""서울특별시 영등포구 여의대방로65길 24,""",126.9292942,37.52044372
347,"""서울특별시 영등포구 영중로 15,""",126.9037164,37.51723357
348,서울특별시 영등포구 영등포로 254,126.909597,37.51868274
349,서울특별시 영등포구 영중로 15,126.9037164,37.51723357
350,"""서울특별시 영등포구 국회대로74길 12,""",126.9210613,37.53008867
351,서울특별시 영등포구 국제금융로 10,126.9261011,37.52595462
352,서울시 은평구 통일로 715,126.9303096,37.6094159
353,서울시 은평구 진관3로 21,126.9190132,37.63960064
354,서울특별시 은평구 통일로 842,126.922064,37.61869113
355,서울특별시 은평구 통일로 867,126.9198928,37.62022284
356,서울특별시 은평구 진관2로 12,126.920357,37.6333289
357,서울특별시 은평구 은평로 170,126.9266622,37.60108898
358,서울특별시 은평구 은평로 111,126.9201929,37.60036226
359,서울특별시 은평구 연서로 146,126.9177125,37.61182625
360,서울특별시 종로구 율곡로2길 25,126.9805175,37.57436453
361,서울시 종로구 대학로12길 4,127.0021987,37.58251706
362,서울특별시 종로구 새문안로3길 15,126.9723004,37.57170516
363,서울특별시 종로구 새문안로 29,126.9667927,37.56832056
364,서울특별시 종로구 평창12길 3,126.9672222,37.60617441
365,서울특별시 종로구 종로 6,126.9780958,37.56984144
366,서울특별시 종로구 종로 51,126.9836107,37.57074333
367,서울특별시 종로구 통일로 168-1,126.963836,37.5690745
368,서울특별시 종로구 새문안로5가길 28,126.9735974,37.57446114
369,서울특별시 종로구 종로 344,127.0160831,37.57272308
370,서울특별시 종로구 삼봉로 71,126.9811146,37.57266811
371,서울특별시 종로구 북촌로4길 23,126.9864795,37.57946969
372,서울특별시 종로구 종로5길 30,126.9807053,37.57167817
373,서울특별시 종로구 새문안로 92,126.9749084,37.56969994
374,서울특별시 종로구 북촌로 43952,126.984548,37.5807651
375,서울특별시 종로구 삼청로 111-1,126.9817852,37.58538787
376,서울특별시 종로구 종로3길 17,126.9789144,37.57099652
377,서울특별시 종로구 돈화문로 13,126.9916657,37.56969451
378,"""서울특별시 종로구 새문안로5길 55,""",126.9739658,37.57512752
379,서울특별시 종로구 인사동길 14,126.9869506,37.57219338
380,서울특별시 종로구 청계천로 41,126.9821793,37.56966788
381,"""서울특별시 종로구 세종대로 167,""",126.9763059,37.57126998
382,서울특별시 종로구 창경궁로 235,126.9983773,37.58298653
383,서울특별시 종로구 사직로8길 4,126.9680751,37.57428766
384,서울특별시 종로구 종로 183,126.9986607,37.57144149
385,서울특별시 종로구 종로 64,126.984544,37.56996107
386,서울특별시 종로구 청계천로 59,126.984183,37.56893647
387,서울특별시 종로구 동숭길 110,127.0039086,37.58298286
388,"""서울특별시 종로구 종로12길 21,""",126.9859967,37.56907724
389,"""서울특별시 종로구 자하문로4길 6,""",126.9726341,37.57718233
390,서울특별시 종로구 종로1길 42,126.9789834,37.57390259
391,서울특별시 종로구 대명길 5,127.0011549,37.58352216
392,"""서울특별시 종로구 대학로 116,""",127.002339,37.58153626
393,"""서울특별시 종로구 종로 113-1,""",126.9902229,37.5705963
394,"""서울특별시 종로구 대학로 57,""",127.001447,37.57655824
395,"""서울특별시 종로구 율곡로 6,""",126.9805018,37.5754933
396,서울특별시 종로구 삼일대로20길 13,126.9886743,37.56975929
397,서울특별시 중구 세종대로12길 12,126.9769218,37.56162722
398,서울특별시 중구 을지로 170,126.9973275,37.56613923
399,서울특별시 중구 장충단로 275,127.0087751,37.56888578
400,서울시 중구 세종대로 39,126.9737756,37.56071415
401,서울특별시 중구 명동9길 16,126.9852345,37.5646483
402,서울특별시 중구 을지로 251,127.0062518,37.56655546
403,서울특별시 중구 서애로 1길,126.998146,37.5610255
404,서울특별시 중구 소공로 63,126.9809781,37.56091729
405,서울특별시 중구 을지로 51,126.9836818,37.56649271
406,서울특별시 중구 퇴계로 18,126.9751563,37.55656057
407,서울특별시 중구 장충단로 229,127.0072104,37.56521078
408,서울특별시 중구 남대문로 109,126.9822467,37.56698559
409,서울특별시 중구 장충단로 166,127.0061551,37.5596519
410,서울특별시 중구 다산로 258,127.0166234,37.56579501
411,서울특별시 중구 통일로 10,126.9736347,37.55709794
412,서울특별시 중구 퇴계로 72,126.9806042,37.5591253
413,서울특별시 중구 남대문로10길 9,126.9832304,37.5672028
414,서울특별시 중구 삼일대로 358,126.9881037,37.56648835
415,서울특별시 중구 퇴계로 77,126.9807761,37.56035982
416,서울특별시 중구 소공로 70,126.9821686,37.56159853
417,서울특별시 중구 세종대로 124,126.9778735,37.56742034
418,서울특별시 중구 명동길 60,126.9857543,37.56377518
419,서울특별시 중구 다산로 129,127.0107392,37.55545033
420,서울특별시 중구 수표로 34,126.9903579,37.56437876
421,서울특별시 중구 명동10길 411522-3232,126.9883434,37.56365476
422,서울특별시 중구 세종대로18길 32,126.9789375,37.56372726
423,서울특별시 중구 서소문로 120,126.9746783,37.56286788
424,"""서울특별시 중구 퇴계로 385,""",127.0143534,37.56540496
425,서울특별시 중구 명동9가길 14,126.9837308,37.5651364
426,"""서울특별시 중구 세종대로 17,""",126.9732666,37.55862859
427,"""서울특별시 중구 칠패로 27,""",126.9720357,37.56026697
428,서울특별시 중구 퇴계로 212,126.9953433,37.56107538
429,서울특별시 중구 소공로 112,126.9792214,37.5646231
430,서울특별시 중구 무교로 21,126.9787424,37.56785457
431,서울특별시 중구 새문안로 22,126.9686455,37.56713012
432,"""서울특별시 중구 세종대로 72,""",126.9768004,37.56249757
433,"""서울특별시 중구 세종대로9길 41",126.9729968,37.56135847
434,"""서울특별시 중구 소월로 10,""",126.9754113,37.55854134
435,서울특별시 중구 청계천로 400,127.0227726,37.57089912
436,서울특별시 중구 서소문로 130,126.9755216,37.56341019
437,서울특별시 중구 명동 7길,126.9891168,37.5580487
438,서울특별시 중구 을지로5길 16,126.9849059,37.56694873
439,서울특별시 중구 남대문로7길 19,126.9807743,37.56377366
440,서울특별시 중구 서소문로 99,126.9721786,37.56288377
441,서울특별시 중구 을지로 50,126.9833247,37.56563712
442,서울특별시 중구 통일로 92,126.9692226,37.56359493
443,서울특별시 중구 을지로 19,126.9799577,37.56630736
444,서울특별시 중구 을지로 19,126.9799577,37.56630736
445,서울특별시 중구 퇴계로 197,126.9939303,37.56145457
446,서울특별시 중구 퇴계로 101,126.9831071,37.56086687
447,서울특별시 중구 퇴계로 100,126.9829263,37.56020701
448,서울특별시 중구 남대문로 24838,126.978328,37.5608972
449,서울특별시 강동구 양재대로 1647,127.1437846,37.55256355
450,서울특별시 강동구 성내로 32,127.123808,37.52919362
451,서울특별시 강동구 고덕로 43,127.1300116,37.55509798
452,서울특별시 강동구 양재대로 1568,127.1433808,37.54537511
453,서울특별시 강동구 천호대로 1089,127.1331174,37.53660845
454,서울특별시 강동구 양재대로 1303,127.1339497,37.52277177
455,서울특별시 강동구 천호대로 1037,127.1273329,37.53783763
456,서울특별시 강동구 천호대로 1015-14,127.125224,37.53898469
457,서울특별시 강동구 양재대로 1487,127.1400635,37.53871304
458,서울특별시 강동구 상일로10길 36,127.1741045,37.55079993
459,서울특별시 강동구 강동대로 171,127.1259368,37.52545191
460,서울특별시 강동구 천호대로 1012,127.1241454,37.53808658
461,서울특별시 강동구 동남로75길 5,127.1560029,37.55400697
462,서울특별시 강동구 양재대로 1441,127.1384063,37.53468459
463,서울특별시 구로구 경인로 610,126.883955,37.5054765
464,서울특별시 구로구 디지털로32길 30,126.8965203,37.48339058
465,서울특별시 구로구 경인로 216,126.8448615,37.49620757
466,서울특별시 구로구 디지털로33길 11,126.8955127,37.48570534
467,서울특별시 구로구 디지털로31길 61,126.8915422,37.48591138
468,서울특별시 구로구 디지털로 285,126.8945059,37.48448678
469,서울특별시 구로구 디지털로26길 5,126.8934794,37.48161069
470,서울특별시 구로구 경인로 662,126.8892779,37.50882112
471,서울특별시 구로구 디지털로32길 72,126.8988576,37.48318509
472,서울특별시 구로구 경인로 662,126.8892779,37.50882112
473,서울특별시 동대문구 천호대로 263,127.0511206,37.56850457
474,서울특별시 동대문구 회기로 141,127.0520306,37.59156791
475,서울특별시 동대문구 이문로 93,127.0592292,37.59537841
476,서울특별시 동대문구 왕산로 19,127.0255257,37.57671156
477,서울특별시 동대문구 이문로 37,127.0561172,37.59080026
478,서울특별시 동대문구 휘경로 4 4166,127.060468,37.5961583
479,서울특별시 동대문구 장한로 10,127.0655014,37.56236159
480,서울특별시 동대문구 경희대로 4 3846,127.052505,37.5918824
481,서울시 성동구 왕십리로50 1층,127.0449108,37.54188761
482,서울시 성동구 동호로 99,127.0153548,37.54804007
483,서울특별시 성동구 아차산로 42,127.0490944,37.54642619
484,서울특별시 성동구 왕십리로 410,127.0238056,37.56695088
485,서울특별시 성동구 성수이로 94,127.0569555,37.54322911
486,서울특별시 성동구 왕십리로 382,127.0280203,37.56511103
487,서울특별시 성동구 왕십리로 326,127.0338948,37.56275264
489,서울특별시 성동구 왕십리로 225,127.042119,37.55716599
490,서울특별시 성동구 왕십리광장로 17,127.0383945,37.56144191
491,서울특별시 성동구 뚝섬로 379,127.0534943,37.53992956
492,서울특별시 용산구 백범로 313,126.9632345,37.53976325
493,서울특별시 용산구 이태원로 188,126.9948014,37.53430855
494,서울특별시 용산구 이태원로 252,127.0011212,37.53710932
495,서울특별시 용산구 한강대로 69,126.9648925,37.52704035
496,서울특별시 용산구 이촌로 276,126.9772842,37.51864341
497,서울특별시 용산구 한강대로 95,126.9666538,37.52881723
498,서울특별시 용산구 서빙고로 67,126.9704131,37.5248626
499,서울특별시 용산구 한강대로 275,126.9722582,37.54287419
500,서울특별시 용산구 독서당로 94,127.0109413,37.53480463
501,서울특별시 용산구 남산공원길 105,126.9878621,37.55111363
502,서울특별시 용산구 한강대로 372,126.9729214,37.55167658
503,서울특별시 용산구 이태원로 213,126.997591,37.53501674
504,서울특별시 용산구 대사관로 67,127.0056427,37.53342044
505,서울특별시 용산구 청파로47길 57,126.9672041,37.54463166
506,서울특별시 용산구 장문로 12,126.9918042,37.52897662
507,서울특별시 용산구 한강대로 291,126.9719472,37.54423952
508,서울특별시 용산구 한강대로23길 55,126.9620444,37.52374199
509,서울특별시 용산구 이촌로 198,126.9690565,37.52106515
510,서울특별시 중랑구 상봉로 131,127.0921779,37.59740654
511,서울특별시 중랑구 망우로30길 3,127.0747515,37.59308167
512,서울특별시 중랑구 신내로 72,127.095696,37.6053796
513,서울특별시 중랑구 면목로 310,127.087965,37.5796083
514,서울특별시 중랑구 망우로 307,127.0864704,37.59693493
515,서울특별시 중랑구 동일로 932,127.0775574,37.61383962
