병원/약국명,병원/약국구분,소재지주소,경도,위도
100세약국,약국,서울특별시 영등포구 양평로 24 (당산동6가),126.903743,37.53326304
123약국,약국,"서울특별시 강남구 언주로30길 10 410호 일부호 (도곡동, 현대비전21)",127.0515544,37.48733918
13층약국,약국,서울특별시 중구 서소문로 116 유원빌딩 1304호 (서소문동),126.9740097,37.56273538
153온누리약국,약국,"서울특별시 성동구 왕십리로 410 K동 106호 (하왕십리동, 센트라스)",127.0238056,37.56695088
1번약국,약국,서울특별시 구로구 구로동로 132 (구로동),126.8843092,37.49041006
1번약국,약국,"서울특별시 관악구 남부순환로 1832 1층 (봉천동, 삼한빌딩)",126.9534963,37.48070357
1층천호약국,약국,서울특별시 강동구 천호대로 1006 브라운스톤천호 105호 (성내동),127.1237911,37.53805508
1층호약국,약국,"서울특별시 노원구 한글비석로 383 1층 일부호 (중계동, 삼창타워프라자)",127.0726897,37.65906374
21C세계로약국,약국,서울특별시 강서구 화곡로 173 1층 (화곡동),126.8407478,37.54204077
21세기고려약국,약국,서울특별시 성북구 고려대로 80 (안암동5가),127.028175,37.586139
21세기메디칼약국,약국,서울특별시 강동구 천호대로 1199 (길동),127.1441535,37.53508963
21세기메디칼약국,약국,서울특별시 성동구 무수막길 97 (금호동2가),127.0198547,37.55433853
21세기보배약국,약국,"서울특별시 노원구 덕릉로 780 4,5,6호 (상계동, 동아불암아파트상가)",127.0790171,37.6670396
21세기상계약국,약국,서울특별시 노원구 동일로 1548 (상계동),127.0576238,37.6666627
21세기신천지약국,약국,서울특별시 영등포구 영등포로 232-1 (영등포동3가),126.9071502,37.51927105
21세기약국,약국,서울특별시 영등포구 여의대방로 177 (신길동),126.9211644,37.50291557
21세기약국,약국,서울특별시 광진구 용마산로 49 (중곡동),127.0875979,37.55798366
21세기약국,약국,서울특별시 관악구 신림로 370 (신림동),126.9291303,37.48735755
2층바른약국,약국,"서울특별시 중구 다산로11길 3 2층 (신당동, 약수JK빌딩)",127.010034,37.55442554
2층소망약국,약국,"서울특별시 양천구 월정로 50 209호 (신월동, 청솔아파트)",126.8421378,37.52426163
2층써밋약국,약국,"서울특별시 용산구 한강대로 69 상가동 2층 222-2호 (한강로2가, 용산푸르지오써밋)",126.9648925,37.52704035
2층은약국,약국,서울특별시 동작구 현충로 75 원불교100년기념관 (흑석동),126.9638596,37.50975898
2층즐거운약국,약국,서울특별시 강서구 양천로 559 가양이마트 2층 (가양동),126.8628104,37.5576752
2층하늘약국,약국,"서울특별시 마포구 월드컵북로 230 201호 (중동, 현대상가)",126.9038299,37.57013872
365구생약국,약국,서울특별시 은평구 통일로 739 1층 (대조동),126.9287341,37.61125152
365그린약국,약국,"서울특별시 강서구 강서로 43 B104호 (화곡동, 도양라비앙타워)",126.8465313,37.5315205
365미소약국,약국,"서울특별시 은평구 진관3로 11 1층 (진관동, 은평뉴타운 힐데스하임)",126.9182669,37.63946176
365바른약국,약국,서울특별시 송파구 가락로 94 1층 103호 (석촌동),127.1067125,37.50075198
365밝은약국,약국,서울특별시 중랑구 면목로39길 8 (면목동),127.08717,37.57975878
365약국,약국,서울특별시 성북구 동소문로 321 1층 (길음동),127.0294647,37.60863826
365열린약국,약국,서울특별시 관악구 남부순환로 1615 (신림동),126.9300855,37.48455443
365열린약국,약국,서울특별시 영등포구 영중로 119 리마크빌 영등포 2층 204-2호 (영등포동8가),126.9051769,37.52684933
365열린약국,약국,서울특별시 구로구 남부순환로97길 3 KS프리미어빌딩 105호 (개봉동),126.8582577,37.49400068
365일팜코리아약국,약국,서울특별시 도봉구 도봉로 733 1층 (도봉동),127.0433044,37.66992287
365종로약국,약국,서울특별시 동대문구 전농로 38 (답십리동),127.0572842,37.56826987
365프라자약국,약국,서울특별시 중랑구 공릉로 63 (묵동),127.0792716,37.61626134
365행복약국,약국,"서울특별시 노원구 한글비석로 57 지하1층 (하계동, 세이브존)",127.068819,37.63657931
3층 파란문 약국,약국,"서울특별시 용산구 한강대로 69 3층 305-1호 (한강로2가, 용산푸르지오써밋)",126.9648925,37.52704035
3층메디칼약국,약국,"서울특별시 송파구 양재대로 1222 23-1호및 23호(일부호 (방이동, 올림픽프라자)",127.1326157,37.51645028
3층엠코약국,약국,"서울특별시 중랑구 망우로 353 C동 309호 (상봉동, 현대엠코이노시티)",127.0900975,37.59797511
3층온누리약국,약국,"서울특별시 마포구 월드컵북로 230 305호 (중동, 현대상가)",126.9038299,37.57013872
3층하나약국,약국,"서울특별시 송파구 올림픽로35길 112 (신천동, 장미B상가 315호)",127.1018019,37.51788155
3층한사랑약국,약국,"서울특별시 서초구 반포대로 287 311호 (반포동, 래미안퍼스티지중심상가)",127.0008093,37.50439902
41약국,약국,서울특별시 양천구 목동동로 293 현대41타워 1층 36호 (목동),126.8757718,37.52817803
4층현약국,약국,서울특별시 동대문구 천호대로 425 (장안동),127.0664691,37.56181649
505약국,약국,서울특별시 구로구 구로동로42길 58 (구로동),126.8921035,37.50354507
5층사랑약국,약국,서울특별시 중구 서소문로 103 배재빌딩 511호 (서소문동),126.9726695,37.56301666
7번약국,약국,서울특별시 강북구 도봉로 339 1층 (수유동),127.0254297,37.63819173
7층애약국,약국,"서울특별시 강남구 테헤란로78길 8 7층 일부호 (대치동, 현빌딩)",127.0552325,37.50562816
7형제약국,약국,서울특별시 강동구 진황도로 179 1층 (둔촌동),127.1428907,37.53019929
8번가위드팜약국,약국,서울특별시 서대문구 성산로 515 석란 1층 (대신동),126.9433353,37.56303639
8층약국,약국,서울특별시 서초구 서초중앙로 125 로이어즈타워 8층 803호 (서초동),127.0134212,37.49301449
DMC하늘약국,약국,"서울특별시 마포구 월드컵북로 361 302호 (상암동, DMC이안상암2단지)",126.8914039,37.57710912
SK온누리약국,약국,서울특별시 강북구 솔샘로 184 에스케이북한산시티 112~113호(미아동) (미아동),127.0128515,37.6199593
SooPharm수약국,약국,서울특별시 강서구 화곡로61길 26 (등촌동),126.8509885,37.55729984
W스토아청와약국,약국,서울특별시 구로구 디지털로 227 (가리봉동),126.8909056,37.4804594
W스토어 참좋은약국,약국,"서울특별시 성북구 동소문로 34 1층 (동소문동3가, 연진빌딩)",127.0098743,37.58981853
delight이화약국,약국,서울특별시 마포구 월드컵로3길 14 220호 (합정동),126.9116488,37.55100751
i튼튼약국,약국,서울특별시 노원구 동일로 1059 (공릉동),127.0729873,37.62453111
the사랑약국,약국,서울특별시 노원구 한글비석로 331 중계주공3단지아파트단지내상가 101호 (중계동),127.0774454,37.65663032
가가호호조은약국,약국,서울특별시 송파구 토성로 16 (풍납동),127.1121294,37.53083354
가까운단골약국,약국,서울특별시 강동구 동남로 891 현대델리안오피스텔 102호 (명일동),127.1559459,37.55331511
가까운사랑약국,약국,서울특별시 강동구 양재대로 1576 삼익빌딩 1층 (명일동),127.1434528,37.54615951
가까운새서울약국,약국,"서울특별시 송파구 토성로 18 1층, 지층 (풍납동)",127.112283,37.53081485
가까운신촌약국,약국,서울특별시 서대문구 연세로 40 1~4층 (창천동),126.9371682,37.55914146
가까운약국,약국,"서울특별시 동대문구 천호대로 313 10호, 11호 (답십리동, 태영빌딩)",127.0553074,37.5654423
가까운약국,약국,서울특별시 강서구 공항대로 426 (화곡동),126.8542295,37.55483108
가까운약국,약국,서울특별시 성북구 보문로 44 (보문동7가),127.0227677,37.57954419
가까운약국,약국,서울특별시 영등포구 당산로 34 로데오 ？ 쇼핑몰 1층 (문래동3가),126.8964935,37.51746278
가까운약국,약국,서울특별시 서대문구 모래내로 364 (홍은동),126.936508,37.58187581
가까운약국,약국,"서울특별시 관악구 양녕로 46 112호 (봉천동, 메카플러스)",126.9472864,37.48614367
가까운온누리약국,약국,서울특별시 양천구 목동서로 349 센트럴프라자 106호 (신정동),126.8653073,37.51740747
가까운우리약국,약국,서울특별시 은평구 통일로 1031 1층 101호 (진관동),126.9166434,37.63463044
가까운우리약국,약국,서울특별시 용산구 대사관로31길 7-10 (한남동),127.0053901,37.53395677
가까운이화약국,약국,"서울특별시 송파구 강동대로 74 잠실올림픽아이파크상가 1층 108호, 지층 B103호 (풍납동)",127.1149327,37.52644184
가까운중앙약국,약국,서울특별시 강서구 마곡중앙4로 74 106~107호 (마곡동),126.834921,37.55788418
가까운천사약국,약국,서울특별시 강서구 공항대로36길 9 1층 (내발산동),126.8374664,37.55812157
가까운행복약국,약국,서울특별시 성북구 고려대로13길 8 1층 (안암동2가),127.0236772,37.58699632
가나안약국,약국,서울특별시 강남구 도산대로 113 1층 (신사동),127.0208549,37.51702099
가나안약국,약국,서울특별시 중랑구 봉우재로 39 (면목동),127.0775557,37.59071111
가나약국,약국,"서울특별시 은평구 서오릉로 46 201동  상가 104호 (녹번동, 녹번2차 현대아파트)",126.9245721,37.60503676
가든건강약국,약국,서울특별시 송파구 충민로 52 가든파이브웍스 S동 307호 (문정동),127.1227465,37.47771802
가든파이브약국,약국,"서울특별시 송파구 충민로 66 1층 F-1001호 (문정동, 가든파이브라이프 1층, F-1001호)",127.1249616,37.47761474
가디온누리약국,약국,서울특별시 금천구 가산디지털1로 171 가산 에스케이 브이원 센터 1층 117호 (가산동),126.8806786,37.48076227
가락약국,약국,서울특별시 송파구 송파대로 286 (가락동),127.1171649,37.49490601
가락온누리약국,약국,서울특별시 송파구 동남로 207 (가락동),127.1309033,37.4960685
가람약국,약국,서울특별시 양천구 공항대로 564 1층 5호 (목동),126.8678738,37.54909683
가람약국,약국,서울특별시 성북구 삼양로8길 3-28 (길음동),127.023492,37.60893094
가람약국,약국,"서울특별시 은평구 통일로 1030 은평헤스티아 1,2층 101, 201호호 (진관동)",126.9176952,37.63419173
가로수길약국,약국,서울특별시 강남구 압구정로 108 1층 7호 (신사동),127.0205988,37.52288669
가산소중한약국,약국,서울특별시 금천구 디지털로9길 68 대륭포스트타워 5차 1층 106호 (가산동),126.8864182,37.48107615
가산약국,약국,서울특별시 금천구 가산로 116 (가산동),126.893145,37.47610728
가야온누리약국,약국,"서울특별시 도봉구 노해로65길 17-9 102,103호 (창동, 삼원프라자)",127.0457491,37.65195068
가양메디칼약국,약국,서울특별시 강서구 양천로57길 13 (가양동),126.8520216,37.56359463
가양온누리약국,약국,서울특별시 강서구 허준로 198 가양프라자 1층 (가양동),126.8602547,37.56129262
가양종로약국,약국,서울특별시 강서구 양천로 460 (등촌동),126.8516985,37.56258336
가온약국,약국,서울특별시 서초구 강남대로 465 교보타워 B동 지상1층 (서초동),127.0241097,37.50375607
가온약국,약국,서울특별시 강남구 학동로 413 청담빌딩 2층 (청담동),127.0451743,37.51817281
가은약국,약국,서울특별시 관악구 봉천로 486 (봉천동),126.9537328,37.48161387
가장빠른천사약국,약국,서울특별시 송파구 강동대로 74 1층 103호 (풍납동),127.1149327,37.52644184
가장친절한정문앞중앙약국,약국,"서울특별시 송파구 강동대로 74 상가동 104,105,106,107,204호 (풍납동)",127.1149327,37.52644184
가장큰이대약국,약국,"서울특별시 강서구 공항대로 248 111~113, 206호 (마곡동)",126.8348945,37.55840572
가장큰태평양약국,약국,서울특별시 용산구 대사관로 52 1층 (한남동),127.0038897,37.53331503
가장큰현대아산약국,약국,서울특별시 송파구 강동대로 67 (풍납동),127.1150718,37.52703719
가장편한대영약국,약국,"서울특별시 송파구 강동대로 74 108동 101,102,지하102호 (풍납동)",127.1149327,37.52644184
가재울온누리약국,약국,"서울특별시 서대문구 거북골로 120 3동 3-1호 (남가좌동, 가재울센트레빌아파트상가)",126.9154159,37.57636185
가정약국,약국,서울특별시 용산구 청파로 333 (청파동1가),126.9696959,37.54932872
가정약국,약국,서울특별시 양천구 목동중앙본로 128-2 (목동),126.8720812,37.54668673
가족건강약국,약국,"서울특별시 동작구 등용로 115 101호 (대방동, 엘리시아빌딩)",126.9317517,37.51144313
가족사랑약국,약국,서울특별시 강북구 오패산로52길 39 (미아동),127.032067,37.62469032
가좌진약국,약국,서울특별시 서대문구 모래내로 137 1층 (남가좌동),126.9169298,37.56910676
가톨릭정문약국,약국,서울특별시 은평구 통일로 1031 1층 102호 (진관동),126.9166434,37.63463044
감람약국,약국,서울특별시 송파구 문정로13길 11-10 1층 (가락동),127.1349332,37.49410254
감마약국,약국,서울특별시 강남구 압구정로 336 101호 (신사동),127.0384775,37.52802235
감초당약국,약국,서울특별시 동대문구 약령중앙로 11 1층 (제기동),127.0367107,37.57931356
감초당약국,약국,서울특별시 송파구 백제고분로41길 11 (송파동),127.1079876,37.50706232
감초당온누리약국,약국,서울특별시 동대문구 한천로 242 1층 (전농동),127.0686072,37.58250244
감초약국,약국,서울특별시 강서구 강서로 38 (화곡동),126.8473181,37.5312476
강남굿모닝약국,약국,"서울특별시 강남구 남부순환로 2615 208호 (도곡동, 극동스타클래스상가)",127.0358836,37.48518534
강남리더스약국,약국,서울특별시 강남구 헌릉로 569 1층 105호 (세곡동),127.1012262,37.46575726
강남맑은약국,약국,"서울특별시 강남구 강남대로 292 3층 (도곡동, 뱅뱅빌딩)",127.0322012,37.48937782
강남메디칼약국,약국,"서울특별시 서초구 방배로 174 1층 (방배동, 태창빌딩)",126.9930602,37.48918147
강남메디칼약국,약국,서울특별시 강남구 삼성로 233 (대치동),127.0609007,37.49805541
강남미소약국,약국,서울특별시 강남구 논현로86길 22 1층 (역삼동),127.0393548,37.50003188
강남미약국,약국,서울특별시 강남구 강남대로 376 1층 1호 (역삼동),127.0287731,37.49656724
강남백세약국,약국,서울특별시 강남구 도곡로 448 1층 일부호 (대치동),127.0595478,37.49811013
강남보선약국,약국,"서울특별시 강남구 도곡로 516 107호 (대치동, 삼성상가)",127.0629885,37.49918201
강남봄약국,약국,"서울특별시 강남구 테헤란로4길 46 지하1층 140호 (역삼동, 쌍용플래티넘밸류)",127.0305033,37.49565248
강남사랑약국,약국,서울특별시 서초구 효령로 12 1층 (방배동),126.9867265,37.47686075
강남새천년온누리약국,약국,서울특별시 강남구 도곡로 523 1층 (대치동),127.0636714,37.50005552
강남세계로약국,약국,서울특별시 강남구 논현로 52 남현빌딩 1층 (개포동),127.0475801,37.47521089
강남소화약국,약국,서울특별시 강남구 봉은사로114길 42 (삼성동),127.0653272,37.51216796
강남약국,약국,"서울특별시 금천구 남부순환로 1372 (독산동, 현경빌딩)",126.9034724,37.47945775
강남약국,약국,서울특별시 강동구 양재대로 1355 (성내동),127.1356163,37.5273953
강남약국,약국,"서울특별시 서초구 강남대로 463 지하1층 102호 (서초동, 리젠타워)",127.0244482,37.5034498
강남역스타약국,약국,서울특별시 강남구 테헤란로4길 6 지하1층 b106호 (역삼동),127.0292866,37.49766777
강남온누리약국,약국,서울특별시 강남구 선릉로 406 102호 (대치동),127.0508326,37.50115429
강남우리온누리약국,약국,"서울특별시 강남구 테헤란로 403 101호 (삼성동, 리치타워)",127.04951,37.50508486
강남웰약국,약국,서울특별시 강남구 강남대로 432 점프밀라노 지하1층 101호 (역삼동),127.0266309,37.50123555
강남정성약국,약국,서울특별시 강남구 언주로 639 1층 (논현동),127.0349615,37.51361841
강남제일약국,약국,서울특별시 강남구 테헤란로 139 (역삼동),127.0343442,37.50040208
강남조은약국,약국,"서울특별시 강남구 남부순환로 2633 102호 (도곡동, 호림빌딩)",127.0377722,37.48536616
강남참약국,약국,서울특별시 강동구 구천면로 662 1층 (상일동),127.1714182,37.5507384
강남퍼스트약국,약국,"서울특별시 강남구 도산대로 104 1층 (논현동, 1st Avenue)",127.0203369,37.51607021
강남프라자약국,약국,서울특별시 강남구 학동로 323 (논현동),127.0383401,37.51657234
강남허브약국,약국,"서울특별시 강남구 학동로 342 109호 (논현동, SK허브빌딩)",127.0408412,37.5167556
강동경희한약국,약국,서울특별시 강동구 풍성로 200 (성내동),127.134001,37.52937438
강동더본약국,약국,서울특별시 강동구 양재대로 1465 마루홈타운 107호 (길동),127.1393141,37.53683936
강동메디칼약국,약국,서울특별시 강동구 올림픽로 686 (천호동),127.1251046,37.54248266
강동미래약국,약국,서울특별시 강동구 올림픽로 782 (암사동),127.1281264,37.5508658
강동보건약국,약국,서울특별시 강동구 성내로 40 (성내동),127.1245706,37.52889193
강동새경희약국,약국,서울특별시 강동구 동남로73길 13 1층 (명일동),127.155461,37.55274242
강동소망약국,약국,"서울특별시 강동구 천호대로 1111 1층 (길동, 정우빌딩)",127.1351091,37.53538427
강동솔약국,약국,서울특별시 강동구 양재대로 1473 희헌타워 1층 (길동),127.1395875,37.53751062
강동약국,약국,서울특별시 강동구 암사길 53 (암사동),127.1353358,37.55202291
강동엠약국,약국,서울특별시 강동구 천호대로 1195 지앤지타워 1층 101호 (길동),127.1439076,37.53503932
강동온누리약국,약국,서울특별시 강동구 천호대로187길 53 (길동),127.1427915,37.53662567
강동우리약국,약국,서울특별시 강동구 천호대로173길 12 (길동),127.1355579,37.53561208
강동웰빙약국,약국,서울특별시 강동구 천호대로 1124 1층 (성내동),127.136193,37.53433753
강동정문약국,약국,서울특별시 강동구 진황도로 74 (천호동),127.1347754,37.53680179
강동태평양약국,약국,서울특별시 강동구 양재대로 1343 (성내동),127.1352133,37.52633605
강동프라자약국,약국,서울특별시 강동구 올림픽로 624 (성내동),127.1232416,37.53704047
강동한우리약국,약국,서울특별시 강동구 올림픽로 778 (암사동),127.1279171,37.55040094
강동해오름약국,약국,서울특별시 강동구 양재대로 1589 (천호동),127.142983,37.54749444
강림약국,약국,서울특별시 동작구 시흥대로 668-2 (신대방동),126.908568,37.49107247
강변그랜드약국,약국,"서울특별시 광진구 광나루로56길 63 123호,135호,136호 (구의동, 프라임프라자상가)",127.0963199,37.53653797
강북김약국,약국,서울특별시 강북구 도봉로49길 8 1층 (미아동),127.025951,37.6252698
강북다모아약국,약국,서울특별시 강북구 도봉로 79 (미아동),127.029529,37.61630677
강북메디칼약국,약국,서울특별시 강북구 도봉로 190 (미아동),127.0267519,37.62585655
강북열린약국,약국,서울특별시 동대문구 전농로 110 1층 (답십리동),127.0578871,37.57464467
강북우리약국,약국,서울특별시 강북구 한천로 1081 1층 (수유동),127.0229683,37.64247442
강북제일약국,약국,서울특별시 강북구 도봉로37길 7 1층 (미아동),127.0271058,37.6223056
강서메디칼약국,약국,서울특별시 강서구 까치산로4길 3 (화곡동),126.844139,37.54249465
강서보건약국,약국,서울특별시 강서구 공항대로67길 29-26 시우 1층 (염창동),126.868885,37.54975013
강서약국,약국,서울특별시 강서구 등촌로 79 (등촌동),126.8632307,37.53705019
강서약국,약국,서울특별시 구로구 개봉로19길 21 (개봉동),126.8558181,37.49297455
강서연세약국,약국,"서울특별시 강서구 화곡로 346 103호 (화곡동, 귀뚜라미홈시스텔)",126.8520182,37.554508
강서자이온누리약국,약국,"서울특별시 강서구 양천로 401 109-2호 (가양동, 강서한강자이타워A동)",126.847644,37.56570112
강서종로약국,약국,서울특별시 강서구 강서로 257 (내발산동),126.8360344,37.54868548
강서홈약국,약국,서울특별시 강서구 화곡로 398 홈플러스강서점앤본사사옥 1층 (등촌동),126.8548187,37.55847005
강서힐약국,약국,서울특별시 강서구 양천로 45-1 (방화동),126.8088497,37.57315744
강약국,약국,서울특별시 송파구 중대로 135 아이티벤처타워 동관 104호 (가락동),127.1224265,37.49509529
강약국,약국,"서울특별시 동작구 서달로 158 (흑석동, 명수대상가104호)",126.9621909,37.50727266
강약국,약국,서울특별시 양천구 화곡로 105 (신월동),126.8336014,37.54006962
강약국,약국,서울특별시 강동구 올림픽로80길 43 (천호동),127.1276571,37.54307102
강약국,약국,서울특별시 서대문구 세검정로1길 7 (홍은동),126.9422862,37.59212565
강원약국,약국,서울특별시 성북구 아리랑로 117-7 (정릉동),127.0130144,37.60246944
강원약국,약국,서울특별시 관악구 대학길 36 (신림동),126.9375815,37.46913538
강원약국,약국,서울특별시 마포구 월드컵북로 25 지하1층 (서교동),126.9191816,37.5566455
강일약국,약국,"서울특별시 강동구 아리수로97길 19 상가동 201호 (강일동, 강일리버파크)",127.1762286,37.56668763
개나리봄약국,약국,서울특별시 강남구 역삼로 310 한솔필리아 2층 26호 (역삼동),127.0484209,37.49923538
개롱약국,약국,"서울특별시 송파구 오금로 396 1층 114호 (가락동, 에스케이허브파크)",127.1342159,37.49795707
개미약국,약국,서울특별시 성북구 장월로 128 (장위동),127.0496081,37.61680082
개미프라자약국,약국,서울특별시 구로구 구로동로35길 46 (구로동),126.8820345,37.4923361
개봉지예당약국,약국,서울특별시 구로구 고척로 123-1 (개봉동),126.8477999,37.50223476
개성약국,약국,"서울특별시 구로구 경인로 176 308호 (오류동, 시티월드)",126.8410498,37.49435897
개포메디칼약국,약국,"서울특별시 강남구 개포로 303 지하1층 16호 (개포동, 현대1차아파트)",127.0539293,37.48231523
개포종로온누리약국,약국,서울특별시 강남구 선릉로 42 1층 (개포동),127.0600358,37.48338254
개포플러스약국,약국,서울특별시 강남구 선릉로 30 개포빌딩 1층 (개포동),127.0611748,37.48251245
개화약국,약국,"서울특별시 강서구 양천로 31 1층 (방화동, 푸른빌딩)",126.8073372,37.5729199
갤러리아온누리약국,약국,서울특별시 강남구 선릉로 843 107호 (신사동),127.0402091,37.52721338
갤러리약국,약국,서울특별시 송파구 올림픽로 212 (잠실동),127.094435,37.51150425
갤러리약국,약국,서울특별시 강남구 학동로20길 55 106호 (논현동),127.0271974,37.51007681
거북당약국,약국,서울특별시 서대문구 응암로 53 (북가좌동),126.9097779,37.57820183
거여서울약국,약국,"서울특별시 송파구 오금로 505 (거여동, 101호)",127.1448479,37.4932112
거평원온누리약국,약국,"서울특별시 강남구 봉은사로 129 지하1층 (논현동, 거평타운)",127.0283141,37.505917
건강과행복이열리는약국,약국,서울특별시 서초구 서초대로 307 (서초동),127.0151324,37.49440619
건강과행복이열리는약국,약국,"서울특별시 노원구 한글비석로 242 113호, 114호 (중계동, 삼부프라자)",127.0769722,37.64923315
건강과행복이열리는중앙메디칼약국,약국,서울특별시 동작구 흑석로 106-5 1층 (흑석동),126.9614525,37.50787997
건강누리약국,약국,서울특별시 마포구 성암로 209 1층 (상암동),126.8964169,37.57812633
건강드림약국,약국,서울특별시 영등포구 영중로 70 1층 (영등포동5가),126.9053399,37.52244705
건강밝은약국,약국,서울특별시 은평구 연서로 216 (대조동),126.9201205,37.61780045
건강백세약국,약국,서울특별시 중구 서소문로 12 (중림동),126.9633375,37.55895794
건강비타민약국,약국,서울특별시 강북구 솔매로 59 (미아동),127.018817,37.62498738
건강샘약국,약국,서울특별시 송파구 백제고분로 275 1층 (석촌동),127.0973382,37.50277883
건강샘약국,약국,서울특별시 은평구 갈현로 300 206호 (갈현동),126.9174201,37.62360978
건강샘온누리약국,약국,"서울특별시 구로구 경인로 661 219동 237호 (신도림동, 신도림1차푸르지오)",126.8874747,37.50916331
건강샘온누리약국,약국,서울특별시 노원구 동일로243길 33 1층 (상계동),127.0531219,37.67844652
건강샘온누리약국,약국,서울특별시 강서구  까치산로 73 1층 (화곡동),126.8469485,37.54523895
건강약국,약국,서울특별시 관악구 남부순환로 1539 (신림동),126.9216047,37.48341131
건강약국,약국,서울특별시 성북구 동소문로 71 (동소문동6가),127.013184,37.59208558
건강약국,약국,서울특별시 동대문구 왕산로 176 2층 (전농동),127.043031,37.57930773
건강약국,약국,서울특별시 중구 퇴계로 213 301-1호 (충무로4가),126.9954927,37.56190183
건강약국,약국,서울특별시 서대문구 가재울로6길 53-61 (남가좌동),126.9230512,37.57670019
건강약국,약국,서울특별시 송파구 백제고분로 162 대양빌딩 1층 103호 (잠실동),127.0847145,37.50499637
건강약국,약국,서울특별시 영등포구 당산로 166 (당산동4가),126.8984666,37.52910702
건강약국,약국,서울특별시 중랑구 신내로 135 신내9단지아파트 제상가1동 1층 117호 (신내동),127.0958491,37.61138443
건강약국,약국,서울특별시 노원구 화랑로 463 (공릉동),127.0786506,37.61900597
건강약국,약국,서울특별시 양천구 곰달래로5길 30 (신월동),126.8334642,37.53243445
건강약국,약국,서울특별시 동작구 만양로 5 (상도동),126.9465265,37.5053875
건강약국,약국,서울특별시 도봉구 도당로 109 방학동상가주택1층 102호 (방학동),127.0386001,37.66683209
건강약국,약국,서울특별시 마포구 방울내로 70 1층 (망원동),126.9033359,37.56010544
건강약국,약국,서울특별시 종로구 혜화로 2 1층 (혜화동),127.0008893,37.58608644
건강온누리약국,약국,서울특별시 강서구 곰달래로 271 (화곡동),126.863159,37.53251377
건강온누리약국,약국,"서울특별시 관악구 남부순환로 1715 101호 (봉천동, 신우빌딩)",126.9408882,37.48303769
건강온누리약국,약국,서울특별시 양천구 오목로 350 (목동),126.8762665,37.52414819
건강온누리약국,약국,서울특별시 영등포구  신풍로 113 (신길동),126.9188666,37.50013713
건강온누리약국,약국,서울특별시 동작구 상도로 202 (상도동),126.9410593,37.50495723
건강온누리약국,약국,"서울특별시 강남구 삼성로 212 B동 1층 195호 (대치동, 은마아파트)",127.066997,37.49879449
건강온누리약국,약국,서울특별시 구로구 고척로21나길 18 (개봉동),126.8446654,37.50287089
건강을준비하는약국,약국,서울특별시 강동구 구천면로 189 지층 (천호동),127.1255279,37.54157814
건강제일녹십자약국,약국,서울특별시 도봉구 해등로 190 (쌍문동),127.0357596,37.65821663
건강제일온누리약국,약국,서울특별시 중랑구 동일로 786 1층 (중화동),127.0799851,37.6007157
건강플러스약국,약국,"서울특별시 강동구 아리수로93길 27 108호 (강일동, 강일타워)",127.1738149,37.56562189
건강플러스약국,약국,서울특별시 노원구 상계로1길 38 (상계동),127.0616932,37.65771078
건강플러스약국,약국,"서울특별시 금천구 시흥대로 391 3층 (독산동, 홈플러스금천점)",126.8968854,37.46866427
건강한세상대한약국,약국,"서울특별시 영등포구 국제금융로 108 (여의도동,은하빌딩 1층)",126.9335486,37.51874262
건강한세상약국,약국,서울특별시 종로구 새문안로 21 (평동),126.9679488,37.56746841
건강한세상약국,약국,서울특별시 은평구 증산로15길 7 (증산동),126.9120871,37.58878158
건강한세상행복한약국,약국,"서울특별시 강남구 강남대로 488 1층 (논현동, 대남빌딩)",127.0242637,37.50589958
건강한약국,약국,서울특별시 노원구 석계로9길 25 1층 오른쪽점포호 (월계동),127.0629297,37.61694555
건강한약국,약국,서울특별시 강동구 구천면로 231 (천호동),127.1300489,37.54140536
건강한약국,약국,서울특별시 광진구 천호대로 655 (중곡동),127.0897263,37.55259991
건강한약국,약국,서울특별시 동대문구 왕산로32길 7 4층 6호 (용두동),127.0417965,37.57873059
건강한약국,약국,서울특별시 성북구 동소문로42길 14 1층 (하월곡동),127.0277795,37.6057202
건강한약국,약국,"서울특별시 은평구 진관2로 57 B105호 (진관동, 은평뉴타운우물골)",127.03416,37.5623004
건강한약국,약국,서울특별시 성동구 왕십리로 320-1 1층 (도선동),127.0341862,37.56232331
건강한약국,약국,서울특별시 용산구 효창원로93길 2 (청파동2가),126.9633074,37.54854056
건강한약국,약국,서울특별시 금천구 남부순환로 1384 (독산동),126.9044863,37.47969722
건강한온누리약국,약국,서울특별시 강서구 가로공원로82길 41-8 1층 (화곡동),126.8408369,37.53562153
건강한온누리약국,약국,서울특별시 강남구 압구정로34길 11 압구정스퀘어 (신사동),127.0309737,37.52737536
건강한우리약국,약국,서울특별시 양천구 지양로 22 (신월동),126.8374593,37.51863135
건국약국,약국,서울특별시 성동구 아차산로 92 광명타워 1층 (성수동2가),127.0542424,37.54475228
건대가온약국,약국,"서울특별시 광진구 광나루로 410 105호 (화양동, KCC파크타운)",127.0750478,37.54656193
건대역약국,약국,서울특별시 광진구 아차산로 218 (자양동),127.0673939,37.54077782
건대온누리약국,약국,"서울특별시 광진구 능동로 110 스타시티영존 지하2층 B203-1,204호 (화양동)",127.0714116,37.54065844
건대지하철약국,약국,"서울특별시 광진구 능동로 110 (화양동, 7호선 건대입구역)",127.0714116,37.54065844
건명약국,약국,서울특별시 중랑구 면목로 421 (면목동),127.0870509,37.58964615
건민약국,약국,서울특별시 노원구 동일로191길 23 1층 (공릉동),127.0717642,37.62489398
건영약국,약국,서울특별시 강남구 선릉로 806 지하1층 (청담동),127.0396438,37.52388851
건우약국,약국,서울특별시 마포구 마포대로 205-1 1층 (아현동),126.9559325,37.55256504
경남약국,약국,"서울특별시 양천구 목동서로 38 상가A동 107호, 113호 (목동, 목동신시가지아파트1단지)",126.8828685,37.53840281
경도약국,약국,서울특별시 영등포구 여의대방로 383 (여의도동),126.9315036,37.51934337
경동삼우한약국,약국,"서울특별시 동대문구 고산자로36길 3 신관1층 21호,22호 (제기동, 경동시장)",127.0390682,37.57925068
경동시장약국,약국,"서울특별시 동대문구 고산자로 476 1층 (제기동, 서울제기동우체국)",127.0388932,37.58213656
경명약국,약국,서울특별시 영등포구 선유서로25길 5-1 (양평동2가),126.8851811,37.52435501
경민약국,약국,"서울특별시 양천구 신월로10길 16 (신월동, 삼성아파트)",126.8407003,37.51585305
경성약국,약국,서울특별시 관악구 남부순환로161길 70 (신림동),126.9187337,37.48534974
경애약국,약국,서울특별시 동대문구 사가정로25길 18 (장안동),127.0706017,37.57960287
경약국,약국,서울특별시 강동구 올림픽로83길 18 101호 (천호동),127.1246517,37.5451842
경원약국,약국,서울특별시 동대문구 고산자로36길 3 (제기동),127.0390682,37.57925068
경인약국,약국,서울특별시 송파구 가락로42길 9 (방이동),127.1208283,37.51233771
경인약국,약국,서울특별시 용산구 새창로14길 50 (용문동),126.9594506,37.53737543
경일약국,약국,서울특별시 종로구 평창문화로 35 (평창동),126.9653069,37.60507512
경일약국,약국,서울특별시 금천구 시흥대로72길 32 (시흥동),126.9002598,37.45810516
경창약국,약국,서울특별시 양천구 월정로 53 (신월동),126.841528,37.52444184
경하프라자약국,약국,서울특별시 은평구 서오릉로 157 (구산동),126.9156186,37.61199734
경화당약국,약국,서울특별시 노원구 화랑로 337 (월계동),127.0651698,37.6152402
경희고황약국,약국,서울특별시 동대문구 경희대로 17 1층 (회기동),127.0524459,37.5931536
경희궁햇살약국,약국,"서울특별시 종로구 송월길 99 203동 2218호 (홍파동, 경희궁자이 2단지)",126.9628425,37.57004009
경희다정한약국,약국,서울특별시 동대문구 답십리로65길 77 1층 (장안동),127.0696577,37.57599737
경희동문약국,약국,서울특별시 동대문구 경희대로 19 (회기동),127.0524458,37.59340715
경희메디칼약국,약국,서울특별시 동대문구 경희대로 24 1층 (회기동),127.0528456,37.59367005
경희메디칼약국,약국,서울특별시 양천구 남부순환로59길 6 (신월동),126.8320149,37.53202174
경희메디칼온누리약국,약국,서울특별시 강동구 동남로 889 103호 (명일동),127.1559486,37.5530548
경희미소원한약국,약국,서울특별시 관악구 난곡로 290 (신림동),126.9150607,37.4798683
경희삼일한약국,약국,서울특별시 동대문구 약령동길 17 (제기동),127.0376719,37.57909307
경희생한약국,약국,"서울특별시 송파구 송파대로 345 3B동 지하1층 1026호 (가락동, 헬리오시티)",127.1077046,37.49925109
경희서림한약국,약국,서울특별시 동작구 상도로15길 98 1층 (상도동),126.9361648,37.50426922
경희서울한약국,약국,서울특별시 강남구 논현로159길 23 101호 (신사동),127.026259,37.52282498
경희수약국,약국,"서울특별시 강동구 동남로 881 103호 (명일동, 서희스타힐스)",127.1557723,37.55229039
경희온누리약국,약국,서울특별시 동대문구 경희대로1가길 32 (회기동),127.0517557,37.59302254
경희우리약국,약국,"서울특별시 동대문구 경희대로 21 지층, 1층, 2층 (회기동)",127.0524012,37.5935128
경희으뜸한약국,약국,서울특별시 관악구 낙성대역길 91 1층 (봉천동),126.9638433,37.47445047
경희일번약국,약국,서울특별시 강동구 동남로 889 101호 (명일동),127.1559486,37.5530548
경희자연한약국,약국,"서울특별시 동대문구 이문로9길 8 2층 1호,2호 (이문동)",127.0574325,37.59296509
경희자연한약국,약국,서울특별시 강남구 논현로95길 29-13 2층 (역삼동),127.0341851,37.50107747
경희정문약국,약국,서울특별시 동대문구 경희대로 22-1 1층 (회기동),127.052867,37.59352141
경희정문약국,약국,서울특별시 강동구 동남로 885 (명일동),127.1559766,37.55265378
경희정산한약국,약국,서울특별시 서초구 방배로 57 1층 (방배동),126.9984691,37.47969638
경희제일약국,약국,서울특별시 동대문구 경희대로 19-5 (회기동),127.0522264,37.59327562
경희중앙약국,약국,서울특별시 동대문구 경희대로 19-9 (회기동),127.0520455,37.5932095
경희프라자약국,약국,서울특별시 강동구 구천면로 245 (천호동),127.1308978,37.54228233
경희행복한약국,약국,서울특별시 영등포구 영등포로 131 (당산동1가),126.8961152,37.52149664
계령약국,약국,"서울특별시 동작구 성대로 32 (상도동, 계령약국)",126.933029,37.49917625
계산온누리약국,약국,서울특별시 성북구 동소문로20길 43 (동선동1가),127.0170303,37.59066266
고덕경희온누리약국,약국,"서울특별시 강동구 고덕로 256 101호 (명일동, 명성프라자)",127.1541051,37.55462003
고덕약국,약국,서울특별시 강동구 고덕로 353 고덕그라시움아파트(상가1동) 208호 (고덕동),127.169029,37.5572395
고덕퍼스트약국,약국,"서울특별시 강동구 고덕로 353 고덕그라시움아파트(상가1동) 254,255호 (고덕동)",127.1645105,37.55713445
고려약국,약국,서울특별시 노원구  동일로 1382 (상계동),127.061556,37.65199805
고려약국,약국,서울특별시 강북구 삼양로 337 (수유동),127.0173439,37.63361844
고려약국,약국,서울특별시 강동구 천호대로 1125 (길동),127.1368114,37.53489602
고려약국,약국,서울특별시 중랑구 상봉로 49 (면목동),127.0933716,37.59025289
고명약국,약국,"서울특별시 서초구 바우뫼로 23 101,102호 (우면동, 선일상가)",127.0252612,37.47041938
고명약국,약국,서울특별시 도봉구 도봉로 724 (방학동),127.043835,37.66902692
고바우약국,약국,서울특별시 송파구 마천로41길 21 (마천동),127.1500341,37.49712273
고성희약국,약국,서울특별시 금천구 금하로24길 57 (시흥동),126.9088243,37.44848455
고속터미널약국,약국,서울특별시 서초구 신반포로 194 서울고속버스터미널 본관동1층 쇼케이스1호 (반포동),127.0068347,37.50643652
고연뿌리약국,약국,"서울특별시 서초구 신반포로 188 지하1층 (반포동, 강남고속터미널역)",127.0044423,37.5046475
고운마음약국,약국,"서울특별시 강서구 양천로 500 1층 112호 (등촌동, 노블리움오피스텔)",126.8555319,37.56053802
고운약국,약국,"서울특별시 송파구 송이로32길 37 201동 1층 04호 (문정동, 문정푸르지오아파트)",127.1272095,37.48700163
고원약국,약국,서울특별시 금천구 시흥대로153길 68 (가산동),126.8947285,37.47686803
고은약국,약국,서울특별시 관악구 신림로 339 1층 (신림동),126.9292747,37.48455277
고은약국,약국,서울특별시 은평구 은평로 8 (신사동),126.9097398,37.59673095
고은약국,약국,서울특별시 동작구 사당로23길 185 (사당동),126.9707019,37.49037912
고은약국,약국,서울특별시 영등포구 영신로 259 (당산동5가),126.9043722,37.53055316
고은약국,약국,서울특별시 강남구 봉은사로 105 2층 (논현동),127.0250234,37.50496974
고은온누리약국,약국,서울특별시 동작구 여의대방로36길 1 (대방동),126.9223797,37.5042274
고은온누리약국,약국,서울특별시 강동구 천호대로 1153 1층 (길동),127.1396464,37.53408114
고일약국,약국,서울특별시 은평구 증산로3길 8 (증산동),126.9052631,37.58099586
고전약국,약국,"서울특별시 강북구 도봉로 167 2층 (미아동, 아름빌딩)",127.0268368,37.62363743
골드로즈약국,약국,"서울특별시 강남구 선릉로86길 31 318호 일부호 (대치동, 선릉역롯데골드로즈2)",127.0520435,37.50416609
골드약국,약국,"서울특별시 동작구 동작대로 89 504호 (사당동, 골든시네마타워)",126.9816648,37.48461288
곰달래약국,약국,서울특별시 강서구 곰달래로 226 (화곡동),126.8580936,37.53157941
곰돌이스타약국,약국,서울특별시 서초구 방배로 226 3층 303호 (방배동),126.9904485,37.49336723
곰돌이약국,약국,"서울특별시 강남구 언주로 309 지하1층 (역삼동, 기성빌딩)",127.0457364,37.49509569
곰약국,약국,서울특별시 은평구 연서로 73 (역촌동),126.915065,37.60564467
공감365온누리약국,약국,서울특별시 용산구 한강대로 100 아모레퍼시픽 지하1층 B106-2호 (한강로2가),126.9686735,37.52879136
공덕오거리약국,약국,서울특별시 마포구 새창로 11 1층 (도화동),126.9513266,37.54246106
공생약국,약국,서울특별시 종로구 종로 228 1층 (종로5가),127.0030749,37.5707041
공원내 아이사랑약국,약국,"서울특별시 성북구 동소문로44길 17 102동 105호, 106호 (하월곡동, 성북힐스테이트)",127.0290112,37.60654985
공원온누리약국,약국,서울특별시 영등포구 신길로 252 (영등포동),126.9117646,37.51411351
공중약국,약국,서울특별시 성동구 성덕정길 105 (성수동2가),127.055108,37.53744223
공항메디칼약국,약국,서울특별시 강서구 공항대로 38 1층 (공항동),126.8115749,37.56097716
공항시장샘온누리약국,약국,서울특별시 강서구 방화동로 37 메디스타워 102호 (방화동),126.8157824,37.58404887
공항약국,약국,서울특별시 강서구 방화동로 10 (공항동),126.8260593,37.58166612
관문약국,약국,서울특별시 성북구 장위로 177 (장위동),127.0552368,37.61596697
관악그랜드약국,약국,서울특별시 관악구 신림로 141 1층 (신림동),126.9334431,37.47159435
관악소망약국,약국,서울특별시 관악구 남부순환로 1838 2층 (봉천동),126.953962,37.48043081
관악수약국,약국,"서울특별시 관악구 호암로 600 1층 (신림동, 하나빌딩)",126.9337292,37.47067526
관악온누리약국,약국,서울특별시 관악구 봉천로 488 1층 2호 (봉천동),126.953907,37.48147839
관악우리약국,약국,서울특별시 관악구 남부순환로 1630 (신림동),126.9317534,37.48424248
관악이화약국,약국,서울특별시 관악구 봉천로 281 1층 (봉천동),126.9324891,37.48772751
관악종로약국,약국,서울특별시 관악구 남부순환로 1833 (봉천동),126.9538693,37.48112443
관악희망약국,약국,서울특별시 관악구 관악로 248 1층 (봉천동),126.9571465,37.48620399
광교약국,약국,서울특별시 종로구 청계천로 49 (관철동),126.9831504,37.56913926
광명약국,약국,서울특별시 마포구 양화로 191 1층 (동교동),126.9257646,37.55867752
광선약국,약국,서울특별시 관악구 은천로 51 은호빌딩 1층 (봉천동),126.9411998,37.48628522
광성약국,약국,"서울특별시 강남구 강남대로 520 (논현동, 영동빌딩)",127.0230495,37.50867429
광실약국,약국,"서울특별시 마포구 도화길 32 101호 (도화동, 삼성프라자상가)",126.9495923,37.54085309
광일약국,약국,서울특별시 관악구 양녕로 38 (봉천동),126.9470047,37.48532212
광장약국,약국,서울특별시 종로구 창경궁로13길 1 1층 (예지동),126.9976212,37.57014364
광장약국,약국,서울특별시 관악구 관악로40길 47 현대상가 1동 1층 5호 (봉천동),126.9588319,37.49218773
광장온누리약국,약국,서울특별시 금천구 금하로 710 (시흥동),126.9086909,37.45088944
광장온누리약국,약국,서울특별시 관악구 신림로 107 1층 (신림동),126.9373916,37.47052375
광장온누리약국,약국,"서울특별시 도봉구 노해로 389 101~104호 (창동, 제일빌딩)",127.0513352,37.6527674
광제사약국,약국,서울특별시 광진구 면목로 130 (중곡동),127.0808992,37.56497943
광주약국,약국,서울특별시 동작구 동작대로 127 1층 (사당동),126.9819421,37.48796598
광주약국,약국,서울특별시 관악구 관악로 268 (봉천동),126.9582737,37.48792409
광진백화점약국,약국,서울특별시 광진구 자양로 43 1층 3호 (자양동),127.085537,37.53170541
광진약국,약국,서울특별시 중구 다산로27길 6-14 (신당동),127.0132566,37.55995062
광진온누리약국,약국,"서울특별시 광진구 아차산로69길 8 103, 104호 (광장동)",127.0985099,37.54250114
광진프라자약국,약국,서울특별시 광진구 면목로 113-1 1층 (중곡동),127.0799823,37.56391366
광해약국,약국,서울특별시 광진구 능동로 298 (능동),127.079305,37.55624634
광혜당약국,약국,서울특별시 성북구 장월로 88-1 (장위동),127.0490605,37.61378031
광혜약국,약국,서울특별시 마포구 숭문길 32 1층 (염리동),126.945578,37.54794253
광혜약국,약국,서울특별시 서대문구 성산로17길 5 (연희동),126.9313991,37.5630189
광화문123약국,약국,서울특별시 종로구 삼봉로 44 1층 (청진동),126.9796894,37.57241848
광화문윤약국,약국,서울특별시 종로구 세종대로 159 4층 (세종로),126.9763472,37.57061561
광희약국,약국,서울특별시 중구 퇴계로 322 정미식품 (광희동2가),127.0074821,37.5640425
교대사랑약국,약국,"서울특별시 서초구 서초대로 335 (서초동, 서흥빌딩)",127.0180872,37.49527908
교보약국,약국,서울특별시 관악구 남부순환로 1827 1층 (봉천동),126.9534124,37.4813454
교약국,약국,"서울특별시 동작구 상도로 407-5 (상도동, 삼호아파트 상가 109호)",126.956691,37.49335985
구로메디칼약국,약국,서울특별시 구로구 경인로 431 (고척동),126.8668726,37.49963447
구로미소약국,약국,서울특별시 구로구 서해안로 2338 (오류동),126.8441486,37.4934782
구로솔약국,약국,서울특별시 구로구 경인로 433 (고척동),126.8670051,37.49968701
구로시장약국,약국,서울특별시 구로구 구로동로26길 37 (구로동),126.8916242,37.50568442
구로약국,약국,서울특별시 구로구 구로동로 147 MEDI FLOWER 147 1층 (구로동),126.8834008,37.49168633
구로종로약국,약국,서울특별시 구로구 경인로 193 (오류동),126.8425817,37.49575558
구로참조은약국,약국,서울특별시 구로구 구로동로 78 시몬빌딩 1층 (구로동),126.8858548,37.48582336
구로프라자온누리약국,약국,"서울특별시 구로구 개봉로 30 (개봉동, 로얄타워)",126.884203,37.4908159
구룡수약국,약국,서울특별시 서초구 논현로31길 41 1층 (양재동),127.041297,37.48086858
구룡약국,약국,서울특별시 서대문구 세무서길 78 (홍제동),126.9469553,37.59114938
구룡약국,약국,"서울특별시 양천구 목동서로 340 상가비동 129호 (신정동, 목동신시가지아파트9단지)",126.8631942,37.5181307
구름약국,약국,"서울특별시 마포구 월드컵북로54길 25 상암DMC푸르지오시티, S-City 오피스텔동 111호 (상암동)",126.8889842,37.58209239
구름약국,약국,서울특별시 노원구 섬밭로 152 공릉아파트2단지상가 1층 101호 (공릉동),127.0682872,37.62993449
구림약국,약국,서울특별시 구로구 남부순환로105길 52 (가리봉동),126.8898545,37.47967097
구명약국,약국,서울특별시 관악구 봉천로 216 (신림동),126.9255244,37.48962275
구민약국,약국,서울특별시 영등포구 당산로 142-1 (당산동3가),126.8973069,37.52731085
구민옵티마약국,약국,"서울특별시 구로구 구로중앙로18길 68 (구로동, 신구로현대아파트)",126.8929937,37.49672609
구산약국,약국,서울특별시 중랑구 공릉로2길 7 구산빌딩 (묵동),127.078264,37.61223667
구산이화약국,약국,서울특별시 은평구 서오릉로 217-5 (구산동),126.9092025,37.6142683
구세약국,약국,서울특별시 은평구 응암로 181 (응암동),126.9165154,37.58820642
구슬약국,약국,서울특별시 서초구 서초중앙로 113 영한빌딩 1층 (서초동),127.013739,37.49186999
구심당약국,약국,서울특별시 마포구 월드컵로25길 58 1층 (망원동),126.9043659,37.55792938
구심약국,약국,서울특별시 서초구 동광로3길 70 (방배동),126.9845683,37.4940684
구암약국,약국,"서울특별시 강서구 허준로 121 109호 (가양동, 대림아파트상가)",126.8542985,37.56684851
구약국,약국,서울특별시 관악구 관악로14길 52 (봉천동),126.9554171,37.47853566
구온누리약국,약국,"서울특별시 용산구 만리재로 134 1층 (서계동, 힐타워빌딩)",126.9625678,37.55134147
구원약국,약국,"서울특별시 마포구 큰우물로 49 1층 101호 (염리동, 엘지상가)",126.9441539,37.54258867
구원약국,약국,서울특별시 성북구 오패산로 16 (하월곡동),127.0375574,37.60366113
구의온누리약국,약국,서울특별시 광진구 자양로 285 (구의동),127.0916827,37.55131667
구인약국,약국,서울특별시 송파구 성내천로 261 (마천동),127.154351,37.49722224
구일온누리약국,약국,서울특별시 용산구 이촌로 303 21동 109호 (이촌동),126.9822923,37.51936961
구일중앙약국,약국,"서울특별시 구로구 구일로 110 305호 (구로동, 해원리버파크)",126.8720081,37.49507508
구파발성모약국,약국,서울특별시 은평구 진관2로 12 메이플카운티2차 1층 108호 (진관동),126.9185511,37.63425796
구흥한약국,약국,서울특별시 동대문구 고산자로 449 (제기동),127.0381675,37.57976994
국기원약국,약국,"서울특별시 강남구 테헤란로 119 2층 (역삼동, 대호빌딩)",127.0306529,37.49931485
국민약국,약국,"서울특별시 동대문구 이문로 37 104호 (회기동, 회기역 한일베라체캠퍼스)",127.0561172,37.59080026
국민약국,약국,서울특별시 중구 을지로41길 22 (을지로6가),127.0063644,37.56707754
국민약국,약국,서울특별시 성북구 정릉로10길 42-2 (정릉동),126.9995807,37.6080286
국민약국,약국,"서울특별시 강서구 곰달래로 225 1,2층 (화곡동)",126.8580311,37.53185732
국송약국,약국,"서울특별시 강남구 광평로51길 49 108호 (수서동, 주공A1단지상가)",127.1005602,37.49115203
국약국,약국,"서울특별시 노원구 한글비석로 383 2층 26호 (중계동, 삼창타워프라자)",127.0726897,37.65906374
국일약국,약국,서울특별시 종로구 종로16길 12 (관철동),126.9885052,37.56954899
국제공항약국,약국,"서울특별시 강서구 하늘길 112 (공항동, 국제선청사3층)",127.094904,37.6064614
국제약국,약국,서울특별시 용산구 한강대로 290-1 (남영동),126.9725848,37.54421082
국제약국,약국,서울특별시 중랑구 봉화산로 194 신아타운 1층 (신내동),127.0947074,37.60645358
국제약국,약국,"서울특별시 동대문구 답십리로 252 1층 (장안동, 세현빌딩)",127.0680907,37.57217669
국제약국,약국,서울특별시 성동구 독서당로 288-1 (금호동4가),127.0212136,37.5477586
국풍당약국,약국,"서울특별시 강남구 선릉로 654 1층 (삼성동, 예인빌딩)",127.0423685,37.51507374
국화약국,약국,"서울특별시 종로구 평창11길 3 1층 (평창동, 쇼핑센타뉴본)",126.9666055,37.60596666
군자백화점약국,약국,서울특별시 광진구 천호대로 574 (능동),127.0815275,37.55601204
군자세계로약국,약국,서울특별시 광진구 천호대로 548 (군자동),127.0789368,37.55691888
군자역우리약국,약국,서울특별시 광진구 천호대로 556 1층 (능동),127.0797014,37.55673232
군자종로약국,약국,서울특별시 광진구 천호대로 561 (중곡동),127.0806673,37.55711432
군자한마음약국,약국,서울특별시 광진구 천호대로 557 풍국빌딩 1층 (중곡동),127.0802922,37.55724026
굴레방약국,약국,"서울특별시 서대문구 신촌로35길 10 1층 114호 (북아현동, e편한세상신촌4단지)",126.9558993,37.55799893
굿데이약국,약국,서울특별시 송파구 송파대로 570 2층 (신천동),127.0991128,37.51578815
굿모닝약국,약국,서울특별시 금천구 독산로 366 (독산동),126.9041216,37.47959281
굿모닝약국,약국,서울특별시 강동구 풍성로 178 1층 (성내동),127.1313946,37.53003778
굿모닝약국,약국,서울특별시 성북구 동소문로 16-1 (동소문동2가),127.008103,37.58907205
굿모닝약국,약국,"서울특별시 마포구 월드컵북로 361 102호 (상암동, 디엠씨이안 상암2단지)",126.8914039,37.57710912
굿모닝약국,약국,"서울특별시 강서구 화곡로 153 1층 (화곡동, 광유빌딩)",126.8387532,37.541499
굿모닝약국,약국,서울특별시 송파구 오금로 420 한라산업개발빌딩 1층 (가락동),127.1362739,37.49698436
굿모닝약국,약국,"서울특별시 광진구 자양로 113 4층 401-1호 (자양동, 구의 현대 하이엘)",127.0829694,37.53789994
굿모닝약국,약국,"서울특별시 관악구 신림로 272 101-2호 (신림동, 대원빌딩)",126.9321511,37.47915172
굿모닝약국,약국,서울특별시 양천구 남부순환로72길 20 (신월동),126.8359628,37.51997722
굿모닝약국,약국,"서울특별시 종로구 경교장길 35 3137호 (평동, 경희궁자이 3단지)",126.9668521,37.56892022
굿모닝약국,약국,서울특별시 영등포구 여의대방로 379 (여의도동),126.9309274,37.51913221
굿모닝약국,약국,"서울특별시 서초구 신반포로 176 125호 (반포동, 센트럴시티)",127.0031918,37.50446765
굿모닝약국,약국,서울특별시 구로구 개봉로 57 (개봉동),126.8557614,37.49076259
굿모닝온누리약국,약국,"서울특별시 구로구 경인로67길 23 (신도림동, 신도림2차푸르지오)",126.8892321,37.51070921
굿모닝이화약국,약국,서울특별시 강서구 공항대로 383 1층 4호 (등촌동),126.8502733,37.5569534
굿약국,약국,"서울특별시 중구 명동길 45 1,2층 (명동1가)",126.9848789,37.56387952
굿약국,약국,서울특별시 서초구 서초대로77길 24 강남 지웰타워2 (서초동),127.0259916,37.50002066
굿윌압구정약국,약국,서울특별시 강남구 압구정로30길 12 1층 101호 (신사동),127.0290829,37.52670534
굿윌정약국,약국,서울특별시 용산구 후암로 47 1층 (후암동),126.9772038,37.55012501
굿케어약국,약국,서울특별시 강남구 선릉로 719 1층 일부호 (논현동),127.0404057,37.51891717
그라시움이화약국,약국,서울특별시 강동구 고덕로 353 고덕그라시움종합상가 3층 320호 (고덕동),127.1645105,37.55713445
그랜드약국,약국,서울특별시 관악구 인헌길 18 1층 (봉천동),126.9667363,37.47476552
그랜드약국,약국,서울특별시 송파구 마천로 35 1층 (방이동),127.1248717,37.50932097
그랜드약국,약국,서울특별시 광진구 아차산로29길 55 (화양동),127.0690927,37.54332918
그랜드약국,약국,서울특별시 중랑구 사가정로 399 동부빌딩 1층 (면목동),127.0892087,37.58076873
그랜드온누리약국,약국,서울특별시 동대문구 장한로 14 (장안동),127.0657533,37.5626093
그린스타약국,약국,서울특별시 송파구 오금로32길 35 104호 (송파동),127.1190365,37.50324966
그린약국,약국,서울특별시 강남구 논현로 835 JK빌딩 1층 (신사동),127.0279499,37.52309423
그린약국,약국,서울특별시 동대문구 장한로 129 102호 (장안동),127.0709327,37.57199885
그린약국,약국,서울특별시 송파구 올림픽로 119 잠실파인애플상가 2층 60~61호 (잠실동),127.0841859,37.5120837
그린약국,약국,서울특별시 양천구 남부순환로 654 (신정동),126.8418579,37.51071848
그린약국,약국,서울특별시 구로구 디지털로33길 11 (구로동),126.8955127,37.48570534
그린약국,약국,"서울특별시 노원구 동일로 1279 211호 (중계동, 중계그린아파트 비이상가)",127.0640108,37.6430693
그린약국,약국,서울특별시 중구 세종대로7길 37 지하1층 (순화동),126.9724895,37.56075122
그린약국,약국,서울특별시 금천구 독산로93길 11 (독산동),126.9025923,37.47386372
그린약국,약국,서울특별시 강서구 수명로 78 새롬프라자 104호 (내발산동),126.8263381,37.55302235
그린약국,약국,"서울특별시 서초구 효령로 394 102호 (서초동, 시범빌딩)",127.0268928,37.48785709
그린이화약국,약국,"서울특별시 마포구 양화로 133 B104-5호 (서교동, 서교타워빌딩)",126.9209828,37.55523139
그린팜약국,약국,서울특별시 강북구 도봉로 329 5층 (수유동),127.0247034,37.63755562
그린팜약국,약국,서울특별시 강동구 올림픽로 665 1층 (천호동),127.1238722,37.54092165
그린프라자약국,약국,"서울특별시 구로구 구로동로 137 (구로동, GS 칼텍스)",126.8835067,37.49093876
그약국,약국,서울특별시 성북구 보국문로 46 (정릉동),127.0101247,37.60852694
극동약국,약국,"서울특별시 송파구 동남로18길 9 (가락동, 극동아파트상가 104호)",127.1322298,37.49635441
근화사약국,약국,서울특별시 마포구 만리재옛길 1 1층 (공덕동),126.9539874,37.5448946
글로리아약국,약국,"서울특별시 종로구 평창문화로 75 A109호 (평창동, 글로리아타운)",126.9690066,37.60686296
금강약국,약국,서울특별시 송파구 가락로 82 102호 (석촌동),127.1053417,37.50028537
금강약국,약국,"서울특별시 강남구 압구정로 151 1-7호 (압구정동, 현대아파트9차상가)",127.0244801,37.52963315
금강약국,약국,서울특별시 성북구 안암로 103 1층 (안암동5가),127.0312955,37.58499771
금강약국,약국,"서울특별시 노원구 한글비석로 365 1층 (중계동, 데미안빌딩)",127.0741671,37.65819479
금강약국,약국,"서울특별시 강서구 금낭화로 135 411호 (방화동, 금강프라자)",126.8124376,37.57744406
금강약국,약국,"서울특별시 동작구 매봉로 178 B02호 (본동, 마본빌딩)",126.9521761,37.51221672
금강온누리약국,약국,서울특별시 영등포구 영중로 10-1 (영등포동3가),126.9064079,37.51735078
금보약국,약국,"서울특별시 용산구 원효로 51 110호 (산천동, 삼성테마트상가)",126.950071,37.53386427
금비약국,약국,서울특별시 강서구 양천로69길 11 1층 101호 (염창동),126.8703927,37.55312019
금빛약국,약국,서울특별시 도봉구 덕릉로 238 1층 (창동),127.0386513,37.63897092
금성당약국,약국,서울특별시 광진구 긴고랑로 115 (중곡동),127.0879311,37.55929971
금성약국,약국,서울특별시 동작구 사당로16길 68 지하1층 (사당동),126.971727,37.48074926
금성약국,약국,서울특별시 중구 동호로33길 5 (오장동),127.0018796,37.56538337
금성약국,약국,"서울특별시 광진구 자양로 112 111호,112호,113호 (구의동)",127.0836668,37.53766805
금신당약국,약국,서울특별시 동대문구 천호대로 427-4 1층 (장안동),127.0667647,37.56184237
금약국,약국,서울특별시 금천구 독산로 174 1층 (독산동),126.9042532,37.46283497
금영약국,약국,"서울특별시 동작구 장승배기로 76 1층 (상도동, 대경빌딩)",126.9394094,37.5044131
금오약국,약국,"서울특별시 중구 퇴계로 61 3층 (남창동, 금오빌딩)",126.9789127,37.55936238
금와약국,약국,서울특별시 광진구 뚝섬로 585 (자양동),127.0750471,37.53358351
금왕약국,약국,서울특별시 종로구 창신5길 19 (창신동),127.0115878,37.57384819
금창약국,약국,서울특별시 동대문구 약령시로 3 1층 (제기동),127.0301201,37.58279826
금천약국,약국,서울특별시 중구 남대문로1길 2 (북창동),126.9776879,37.56127008
금호우리약국,약국,서울특별시 성동구 장터길 24 설당빌딩 1층 (금호동4가),127.0185745,37.54819962
금호프라자약국,약국,서울특별시 성동구 독서당로 302 1층 (금호동4가),127.0227315,37.54761259
금화온누리약국,약국,"서울특별시 서초구 반포대로 287 125호 (반포동, 래미안퍼스티지중심상가)",127.0008093,37.50439902
기린약국,약국,서울특별시 서대문구 통일로 468 1층 (홍제동),126.9429047,37.59026504
기린약국,약국,서울특별시 강서구 하늘길 74 (과해동),126.7962746,37.56142775
기린약국,약국,서울특별시 구로구 구로동로 215-1 (구로동),126.8822789,37.49785474
기린약국,약국,서울특별시 서초구 잠원로 24 130호 (반포동),127.0098732,37.50711509
기린약국,약국,서울특별시 성동구 독서당로 175 (옥수동),127.0094881,37.54217275
기린약국,약국,서울특별시 은평구 서오릉로 79 아름빌딩 1층 (역촌동),126.9216821,37.60727716
기림약국,약국,서울특별시 은평구 응암로22길 8 (응암동),126.9188458,37.59358423
기림약국,약국,서울특별시 영등포구 대림로34길 29 (대림동),126.9010555,37.49991864
기분좋은약국,약국,"서울특별시 관악구 은천로 110 1층 (봉천동, 더블유에스타워)",126.9473495,37.48668587
기분좋은약국,약국,서울특별시 금천구 시흥대로139길 15 (독산동),126.8972556,37.47264115
기쁜샘약국,약국,서울특별시 강동구 천호대로 1163 (길동),127.1405002,37.53410177
기쁜약국,약국,"서울특별시 동대문구 이문로 88 1층 103호 (이문동, 민족통일 대통령 빌딩)",127.059409,37.5946727
기쁨약국,약국,서울특별시 서초구 효령로 396 1층 (서초동),127.0272248,37.48789781
기쁨약국,약국,"서울특별시 송파구 위례광장로 200 101(일부),102호 (장지동, 에스비트램스퀘어)",127.1429056,37.48120477
기쁨약국,약국,"서울특별시 마포구 월드컵로 82 1층 (서교동, 소단빌딩)",126.9102546,37.55624522
기쁨약국,약국,서울특별시 강남구 개포로 228 (개포동),127.0477121,37.47865577
기쁨약국,약국,"서울특별시 강서구 등촌로5길 2 1층 104, 105호 (화곡동)",126.8632985,37.53348573
기쁨약국,약국,"서울특별시 노원구 노원로26길 181 1층 (상계동, 청자빌딩)",127.0713611,37.65807646
기쁨약국,약국,서울특별시 광진구 면목로 190 1층 (중곡동),127.0833414,37.56995001
기쁨이 넘치는 약국,약국,서울특별시 중구 다산로39길 17 1층 (무학동),127.0150065,37.56432937
기쁨주는약국,약국,"서울특별시 강남구 광평로 281 2층 일부호 (수서동, 수서빌딩)",127.1030685,37.48811622
기영약국,약국,서울특별시 용산구 대사관로31길 7-5 (한남동),127.0054779,37.53374532
기풍약국,약국,서울특별시 중구 다산로40길 56 1층 (신당동),127.019076,37.56318661
기호약국,약국,서울특별시 광진구 군자로 25 (화양동),127.0705543,37.54543917
길동보룡약국,약국,서울특별시 강동구 양재대로 1478 (길동),127.1402262,37.53769167
길동수약국,약국,서울특별시 강동구 천호대로 1123 (길동),127.1365037,37.53504263
길동스타약국,약국,"서울특별시 강동구 양재대로 1498 1층 (길동, 호석빌딩)",127.1409082,37.53930942
길동중앙약국,약국,서울특별시 강동구 천호대로187길 49 1층 (길동),127.1427146,37.53643507
길성약국,약국,서울특별시 강동구 진황도로 127 (길동),127.1403498,37.53434233
길약국,약국,"서울특별시 강서구 곰달래로 260 (화곡동, 피앤와이빌딩)",126.8617971,37.53203547
길약국,약국,서울특별시 노원구 상계로 306 (상계동),127.0795874,37.670327
길약국,약국,"서울특별시 성북구 성북로4길 52 3층 418-2302호 (돈암동, 스카이프라자 서관)",127.0087724,37.5960197
길약국,약국,서울특별시 강북구 도봉로67길 21 (미아동),127.0230982,37.6304612
길약국,약국,서울특별시 강동구 천호대로177길 10 (길동),127.1376049,37.53495822
길음메디칼약국,약국,서울특별시 성북구 길음로 2 1층 (길음동),127.0246824,37.60435917
길음시장약국,약국,"서울특별시 성북구 길음로9길 50 101호 (길음동, 길음뉴타운)",127.0192496,37.60389209
김비타약국,약국,서울특별시 강서구 공항대로 206 나인스퀘어 111호 (마곡동),126.8302735,37.55889553
김약국,약국,서울특별시 동작구 노량진로 162 . 1층 (노량진동),126.9439574,37.5134065
김약국,약국,서울특별시 관악구 남부순환로 1601-1 1층 (신림동),126.9286186,37.48437609
김약국,약국,서울특별시 양천구 지양로 75 (신월동),126.8333425,37.52218653
김약국,약국,서울특별시 영등포구  대림로22길 37 (대림동),126.9042945,37.49557247
김포약국,약국,서울특별시 강서구 방화동로 70 (방화동),126.8128373,37.56668323
김해약국,약국,서울특별시 종로구 종로 206 (종로5가),127.0006926,37.57070865
까치프라자약국,약국,"서울특별시 강서구 강서로 52 104,105호 (화곡동, 화곡판타지아빌딩)",126.8466912,37.53249142
꿀약국,약국,서울특별시 동작구 양녕로 186 1층 (상도동),126.9435977,37.49792512
꿈꾸는약국,약국,서울특별시 동작구 장승배기로 168 B001호 (노량진동),126.9405538,37.51261409
꿈이있는 온누리약국,약국,서울특별시 강북구 삼양로 462 (수유동),127.0160696,37.64453635
꿈이있는약국,약국,서울특별시 서대문구  통일로 185-1 (영천동),126.9621636,37.57006286
나나약국,약국,"서울특별시 관악구 보라매로3길 29 3층 (봉천동, 보라매해태타워아파트)",126.9249905,37.49121105
나나약국,약국,서울특별시 동대문구 장한로18길 59 (장안동),127.0723004,37.56786104
나눔약국,약국,서울특별시 영등포구 여의대방로53길 23 (신길동),126.9219699,37.51179001
나눔약국,약국,서울특별시 강동구 구천면로 403 1층 (명일동),127.1433553,37.55088231
나눔약국,약국,서울특별시 양천구 목동중앙로 95 (목동),126.8722215,37.53763913
나눔약국,약국,서울특별시 노원구 동일로216길 70 1층 (상계동),127.0654954,37.65212421
나라약국,약국,서울특별시 광진구 능동로 110 스타시티 영존빌딩 지2층 B201호 (화양동),127.0714116,37.54065844
나라약국,약국,"서울특별시 서대문구 가재울미래로 2 별동상가 102호 (남가좌동, DMC파크뷰자이)",126.9178563,37.57436842
나라약국,약국,서울특별시 강서구 강서로 27 103호 (화곡동),126.8472056,37.53036483
나래약국,약국,"서울특별시 영등포구 도림로 192 (대림동, 동성빌딩)",126.9024145,37.49618608
나래약국,약국,"서울특별시 금천구 독산로 137 (시흥동, 시흥음악학원)",126.9047439,37.45959931
나루역사거리현대약국,약국,"서울특별시 송파구 올림픽로 435 (신천동, 파크리오A상가 163, 164호)",127.1123091,37.52044482
나리약국,약국,서울특별시 강남구 도곡로 442 105호 (대치동),127.0588416,37.49795427
나무약국,약국,서울특별시 영등포구 도림로 158 대림빌딩 (대림동),126.8993735,37.49416063
나무약국,약국,서울특별시 서초구 명달로 106 원영빌딩 1층 (서초동),127.0044483,37.48661134
나무약국,약국,서울특별시 강남구 선릉로 404 (대치동),127.0509686,37.50099148
나무약국,약국,서울특별시 성동구 금호로 94 금호힐오피스텔 2층 201호 (금호동1가),127.0257327,37.55166274
나무약국,약국,서울특별시 강서구 강서로45길 174 수명산씨티 3층 (내발산동),126.8306104,37.55287089
나무약국,약국,"서울특별시 마포구 백범로 202 101호 (신공덕동, 마포KCC웰츠타워)",126.9524685,37.54284835
나무약국,약국,"서울특별시 송파구 중대로 24 상가 1동 1층 111-1호 (문정동, 올림픽훼밀리타운)",127.1119021,37.48853315
나바론약국,약국,서울특별시 성북구 동소문로3길 4 정화빌딩 1층 (동소문동1가),127.0066239,37.58911095
나아약국,약국,서울특별시 강동구 천호대로162길 50 (성내동),127.1278734,37.5347037
나약국,약국,서울특별시 성북구 장위로15길 1 1층 (장위동),127.0412621,37.61436659
나은약국,약국,서울특별시 서초구 남부순환로287길 9-1 (방배동),126.9875192,37.47629516
나은약국,약국,서울특별시 강동구 양재대로 1620 명일빌딩 101호 (명일동),127.144098,37.55004178
나은약국,약국,서울특별시 구로구 구로동로28길 99 (구로동),126.8917412,37.50516431
나을약국,약국,"서울특별시 서초구 서초중앙로 138 3층 (서초동, 우림빌딩)",127.0139641,37.49423915
나음약국,약국,"서울특별시 용산구 한강대로 95 제지하1층 제1비157호 (한강로2가, 래미안용산 더 센트럴)",126.9666538,37.52881723
나음온누리약국,약국,서울특별시 강동구 올림픽로 620 예투빌딩 1층 (성내동),127.1231325,37.53678324
나진약국,약국,"서울특별시 도봉구 방학로 223 101호 (방학동, 사천목씨종친회관)",127.0271926,37.66147581
나현약국,약국,서울특별시 노원구 상계로12길 41 (상계동),127.0696289,37.65643306
낙성대약국,약국,"서울특별시 관악구 남부순환로 1938 1층 (봉천동, 성은빌딩)",126.9641138,37.47656422
난곡비타민약국,약국,서울특별시 관악구 난곡로 231 1층 (신림동),126.9166309,37.47494113
난곡프라자약국,약국,서울특별시 관악구 난곡로 219 (신림동),126.9173388,37.47389905
남강약국,약국,서울특별시 관악구 난곡로 107-1 1층 (신림동),126.9192508,37.46512472
남구로약국,약국,서울특별시 구로구 구로동로 33 (가리봉동),126.8897156,37.50409948
남대문약국,약국,서울특별시 금천구 독산로40길 25 1층 (시흥동),126.9059386,37.46036246
남대문약국,약국,서울특별시 은평구 통일로87길 19 1층 (갈현동),126.9175168,37.62329028
남매약국,약국,서울특별시 송파구 오금로64길 4 (거여동),127.147315,37.49255267
남문프라자약국,약국,서울특별시 금천구 시흥대로 436 (독산동),126.8986668,37.4725966
남부시장약국,약국,서울특별시 강서구 등촌로5길 80 (화곡동),126.8589523,37.5330713
남부장수약국,약국,서울특별시 서초구 동산로 60 1층 (양재동),127.0454173,37.47169511
남북약국,약국,서울특별시 노원구 상계로27길 15 1층 (상계동),127.0702207,37.65922602
남산우리약국,약국,"서울특별시 중구 소공로 35 102호 (회현동1가, 남산롯데캐슬아이리스상가 102호)",126.9817441,37.55822445
남선약국,약국,"서울특별시 용산구 원효로 166 103호 (원효로2가, 원효아파트)",126.9614985,37.5350256
남시약국,약국,서울특별시 중구 남대문로 18 (남대문로3가),126.9777395,37.56076447
남영약국,약국,서울특별시 서초구 동광로 75 1층 (방배동),126.9906435,37.49306612
남영약국,약국,"서울특별시 종로구 삼일대로 461 (경운동, 운현궁SK허브)",126.9852865,37.57590635
남일온누리약국,약국,"서울특별시 송파구 올림픽로 435 309호 (신천동, 파크리오)",127.1123091,37.52044482
남정약국,약국,서울특별시 성북구 보문로 71-1 (보문동5가),127.0210868,37.5817254
남지약국,약국,서울특별시 동대문구 한천로11길 43 (답십리동),127.0599454,37.56693907
남진약국,약국,서울특별시 동대문구 약령시로 86-1 (제기동),127.0394956,37.58282619
내방약국,약국,"서울특별시 서초구 방배로 125 2층 2호 (방배동, 영신빌딩)",126.9949295,37.48508604
내외약국,약국,서울특별시 양천구 신월로 165 (신월동),126.8417806,37.51830173
내인당약국,약국,서울특별시 강서구 강서로 301 1층 (내발산동),126.836083,37.55277785
내자약국,약국,"서울특별시 종로구 사직로 107 1층 (내자동, 한빛빌딩)",126.9707566,37.57632774
넘버원삼육약국,약국,서울특별시 동대문구 망우로18길 26 1층 (휘경동),127.0626733,37.58876967
노들약국,약국,서울특별시 동작구 노량진로 166 (노량진동),126.9445341,37.51354892
노량진종로약국,약국,서울특별시 동작구 노량진로 234 (본동),126.9519309,37.51247698
노바약국,약국,서울특별시 강남구 강남대로118길 51 1층 (논현동),127.0272207,37.50750686
노벨약국,약국,서울특별시 강남구 선릉로131길 8 13호 (논현동),127.0402771,37.517977
노벨온누리약국,약국,"서울특별시 은평구 연서로 1 105호 (역촌동, 리더스파크)",126.9153607,37.59925339
노아약국,약국,서울특별시 영등포구 의사당대로 26 더하우스소호 1층 102호 (여의도동),126.9181073,37.52653743
노아한약국,약국,서울특별시 동대문구 천장산로7길 62 3층 (이문동),127.0544792,37.59825056
노약국,약국,서울특별시 강북구 도봉로 174 (미아동),127.0272418,37.62444124
노원메디칼약국,약국,"서울특별시 노원구 동일로 1401 201호 (상계동, 상아빌딩)",127.0603805,37.65357444
노원약국,약국,"서울특별시 노원구 노해로 501 1층 103호 (상계동, 노원빌딩)",127.0635118,37.65521857
노원종로약국,약국,서울특별시 노원구 동일로 1102 (공릉동),127.0719806,37.62828606
노원프라자약국,약국,서울특별시 노원구 동일로 1345 (상계동),127.061868,37.64870374
노원행복한약국,약국,"서울특별시 노원구 상계로 63-7 1층 (상계동, 청우빌딩)",127.0618888,37.65650939
노을약국,약국,서울특별시 강서구 까치산로 36 1층 (화곡동),126.8443005,37.54271971
녹번건강약국,약국,서울특별시 은평구 통일로 630-1 지하1층 B101-1호 (녹번동),126.9374846,37.60315897
녹번온누리약국,약국,서울특별시 은평구 통일로 626 유림빌딩 101호 (녹번동),126.9354088,37.60247522
녹색건강약국,약국,서울특별시 중랑구 면목로55길 25 완진빌딩 (면목동),127.0868242,37.58417868
녹수프라자약국,약국,서울특별시 금천구 독산로 213 (독산동),126.9017867,37.46576319
녹십자약국,약국,서울특별시 송파구 올림픽로 130 (잠실동),127.0849755,37.51137224
녹십자약국,약국,서울특별시 강서구 화곡로64길 78 (등촌동),126.8572081,37.55578473
녹십자약국,약국,"서울특별시 강북구 도봉로 255 1층 (수유동, 나라빌딩)",127.0239042,37.6311428
녹십자약국,약국,서울특별시 금천구 시흥대로 96 (시흥동),126.903993,37.44264542
녹십자약국,약국,서울특별시 도봉구 우이천로4길 32 1층 (창동),127.0412139,37.63385446
녹십자약국,약국,서울특별시 구로구 구로동로28길 2 (구로동),126.8917412,37.50516431
녹십자약국,약국,서울특별시 서초구 방배로25길 4 1층 (방배동),126.992552,37.48885029
녹십자약국,약국,서울특별시 영등포구 대림로 157 (대림동),126.8994611,37.49487198
녹십자옵티마약국,약국,서울특별시 강남구 논현로10길 24 1층 (개포동),127.0505076,37.47468124
녹원약국,약국,서울특별시 관악구 신림로 261 (신림동),126.932144,37.47803518
녹원약국,약국,서울특별시 송파구 백제고분로50길 26 1층 (방이동),127.1174076,37.51343535
논현동약국,약국,서울특별시 강남구 논현로132길 5 1층 (논현동),127.0309175,37.51499619
논현사랑약국,약국,서울특별시 강남구 학동로 313 1층 일부호 (논현동),127.0374374,37.51625893
논현수약국,약국,서울특별시 강남구 선릉로 705 1층 (논현동),127.0407666,37.5179643
논현약국,약국,서울특별시 강남구 선릉로129길 22 1층 (논현동),127.039671,37.51613362
논현연세약국,약국,서울특별시 강남구 강남대로122길 50 1층 일부호 (논현동),127.027076,37.50891582
논현온누리약국,약국,서울특별시 서초구 강남대로 541 1층 (반포동),127.0211405,37.51017742
논현천사약국,약국,서울특별시 강남구 논현로 604 태성빌딩 1층 (논현동),127.0340361,37.5076421
논현필리아약국,약국,서울특별시 강남구 선릉로 641 1층 일부호 (논현동),127.0422853,37.51375068
농수산약국,약국,"서울특별시 송파구 양재대로 932 B동 B1층 03-1호 (가락동, 가락동 농수산물도매시장)",127.1086491,37.49467422
누가신약국,약국,"서울특별시 송파구 송파대로 383 (석촌동, 1층 3호)",127.1100366,37.50155953
누가약국,약국,서울특별시 강북구 솔샘로 254 (미아동),127.0207444,37.6193303
누가약국,약국,서울특별시 영등포구 디지털로 367 1층 (대림동),126.9007463,37.4903875
누리약국,약국,서울특별시 관악구 관악로 222 (봉천동),126.9555325,37.48435671
누리약국,약국,"서울특별시 노원구 월계로45길 21 203호 (월계동, 롯데캐슬루나아파트)",127.0493563,37.62684188
누리약국,약국,서울특별시 강남구 테헤란로 310 3층 (역삼동),127.0447525,37.50285495
누리온누리약국,약국,"서울특별시 광진구 자양로15길 18 1층 (자양동, 혜성빌딩)",127.0825459,37.53582308
뉴그랜드약국,약국,서울특별시 영등포구 대림로 212 (대림동),126.8981463,37.49959622
뉴대원약국,약국,"서울특별시 성북구 화랑로 248 1층 101호 (석관동, 장위뉴타워)",127.056905,37.61040295
뉴메디슨약국,약국,"서울특별시 도봉구 해등로 255 101동 207호 (쌍문동, 에벤에셀)",127.0281915,37.65737423
뉴메디칼약국,약국,서울특별시 동대문구 전농로 147 (전농동),127.0572685,37.57798635
뉴메디칼약국,약국,서울특별시 광진구 뚝섬로 496 (자양동),127.0652342,37.53598938
뉴석계프라자약국,약국,서울특별시 노원구 석계로 2 (월계동),127.0648436,37.61519609
뉴성모제일약국,약국,서울특별시 영등포구 여의대방로62길 2 봉덕빌딩 1층 (신길동),126.9266743,37.51381277
뉴시티약국,약국,서울특별시 송파구 석촌호수로 160 102호 (삼전동),127.0947807,37.50668875
뉴욕약국,약국,서울특별시 강남구 테헤란로 107 1층 (역삼동),127.0287555,37.49868419
뉴욕온누리약국,약국,서울특별시 강동구 양재대로 1590 1층 (명일동),127.143695,37.54744359
뉴우리약국,약국,서울특별시 광진구 아차산로 237 삼진빌딩 5층 (화양동),127.0697465,37.54049681
뉴월드약국,약국,서울특별시 중랑구 겸재로49길 18 (면목동),127.0904945,37.58986545
뉴지명약국,약국,서울특별시 도봉구 덕릉로 236 1층 (창동),127.0385103,37.63874504
뉴크로바약국,약국,서울특별시 노원구 누원로 22 크로바상가 101호 (상계동),127.0530593,37.68711025
뉴타운메디컬약국,약국,"서울특별시 은평구 진관3로 70 821동 상가 115호 (진관동, 은평뉴타운상림마을)",126.9231728,37.6431925
뉴타운약국,약국,"서울특별시 강북구 삼양로27길 43 2층 201,202호 (미아동, 위브 테라스 파크)",127.0188478,37.61855077
뉴프라임약국,약국,서울특별시 송파구 송파대로 278 1층 (가락동),127.1177351,37.494287
뉴프라자약국,약국,"서울특별시 동대문구 고산자로 399 104호,105호 (용두동, 동양프라자)",127.0377691,37.57527517
느티나무약국,약국,서울특별시 광진구 자양로 87 1층 (자양동),127.0836235,37.5356522
늘기쁜약국,약국,서울특별시 도봉구 도봉로 726 1층 (방학동),127.0438428,37.66914863
늘기쁜약국,약국,서울특별시 서초구 효령로 200 1층 (서초동),127.0061373,37.48283946
늘봄약국,약국,서울특별시 관악구 인헌길 12 1층 (봉천동),126.9667932,37.47511506
늘봄약국,약국,서울특별시 강남구 논현로159길 17 101호 (신사동),127.0266263,37.52290082
늘봄약국,약국,"서울특별시 송파구 토성로 78 (풍납동, 1층)",127.118409,37.52803158
늘사랑약국,약국,서울특별시 구로구 개봉로3길 59 (개봉동),126.8529853,37.48606372
늘사랑약국,약국,서울특별시 동작구 상도로 91 (상도동),126.9307004,37.50003819
늘사랑온누리약국,약국,서울특별시 금천구 금하로 816 (시흥동),126.9170919,37.44789016
늘온누리약국,약국,"서울특별시 강동구 상일로12길 89 101호 (강일동, 리엔타운)",127.1728865,37.55637035
늘조은온누리약국,약국,서울특별시 동대문구 사가정로25길 66 1층 (장안동),127.0712495,37.58167715
늘조은온누리약국,약국,서울특별시 송파구 동남로18길 45 1층 (가락동),127.1348198,37.49284478
늘좋은약국,약국,"서울특별시 동대문구 천호대로 319 1층 102호 (답십리동, 답십리한화오벨리스크)",127.0560697,37.56481657
늘편한약국,약국,서울특별시 서초구 서초대로74길 3 윤빌딩 1층 (서초동),127.0261995,37.49722169
늘편한약국,약국,"서울특별시 도봉구 덕릉로 218-1 1층 (창동, 좌측)",127.037304,37.63748177
늘푸른건강약국,약국,서울특별시 금천구 범안로 1183 (독산동),126.8931171,37.46670038
늘푸른솔약국,약국,서울특별시 중랑구 겸재로 178 (면목동),127.0873891,37.58814776
늘푸른약국,약국,"서울특별시 관악구 신림로 137 (신림동, 조흥빌딩)",126.9340557,37.47115346
늘푸른약국,약국,서울특별시 종로구 새문안로 17 2층 (평동),126.9676935,37.56744473
늘푸른약국,약국,서울특별시 강북구 월계로7나길 9 (미아동),127.0333651,37.61259045
늘푸른약국,약국,"서울특별시 마포구 백범로 202 1층 102호 (신공덕동, 마포케이씨씨웰츠타워)",126.9524685,37.54284835
늘푸른약국,약국,서울특별시 구로구 구로중앙로12길 38 (구로동),126.8932296,37.49256196
늘푸른약국,약국,서울특별시 동대문구 전농로 148 1층 (전농동),127.05766,37.57821766
늘푸른약국,약국,"서울특별시 강남구 언주로 601 파크랜드빌딩 지하1층 4,5호 (논현동)",127.0377822,37.50886464
늘푸른약국,약국,서울특별시 은평구 통일로 871 (갈현동),126.9197001,37.62058469
늘푸른약국,약국,"서울특별시 성북구 돌곶이로 25 (석관동, 씨티홈)",127.06103,37.60664625
늘푸른약국,약국,"서울특별시 강동구 풍성로 214 102호 (성내동, 동양빌딩)",127.1353193,37.52898754
늘푸른약국,약국,"서울특별시 성동구 왕십리로 410 D동 비103호 (하왕십리동, 센트라스)",127.0238056,37.56695088
늘푸른약국,약국,서울특별시 강서구 화곡로 190 박상춘안과의원 1층 (화곡동),126.8426097,37.54254022
늘푸른약국,약국,서울특별시 도봉구 도봉로163길 7 (도봉동),127.0439636,37.67605106
늘푸른약국,약국,서울특별시 서초구 반포대로 114 지하1층 102호 (서초동),127.0087284,37.49047577
늘푸른약국,약국,서울특별시 중랑구 동일로 803 1층 (중화동),127.0790112,37.6021533
늘푸른온누리약국,약국,"서울특별시 중랑구 면목로27길 80 80동 (면목동, 1층)",127.0811078,37.57435187
늘푸른온누리약국,약국,서울특별시 강남구 압구정로 306 101호 (신사동),127.0347531,37.52885501
늘푸른온누리약국,약국,서울특별시 관악구 남부순환로 1925 (봉천동),126.9632771,37.47752722
늘푸른이화약국,약국,서울특별시 영등포구 영신로32길 20 (영등포동4가),126.9033931,37.51892981
늘푸른평강약국,약국,서울특별시 강북구 한천로 1043 (수유동),127.0260376,37.6402988
늘픔약국,약국,서울특별시 서초구 헌릉로8길 9-8 1층 108호 (내곡동),127.0599766,37.45669076
늘픔약국,약국,서울특별시 관악구 남부순환로 1635 1층 (신림동),126.9323315,37.48483565
다나스약국,약국,서울특별시 영등포구 여의대방로 83 1층 (신길동),126.9158497,37.49711623
다나아약국,약국,서울특별시 강서구 방화대로7나길 29 (공항동),126.814129,37.55631857
다나약국,약국,서울특별시 강북구 덕릉로 75 석우빌딩 1층 (수유동),127.0220531,37.63482179
다나약국,약국,서울특별시 영등포구 가마산로 439-1 (신길동),126.9053786,37.5053486
다나약국,약국,서울특별시 종로구 종로 128 302호 (종로3가),126.9919202,37.57015295
다나약국,약국,서울특별시 용산구 후암로 43-2 1층 (후암동),126.9772938,37.54980994
다나약국,약국,서울특별시 중구 동호로 171 (신당동),127.0112886,37.55344827
다나약국,약국,"서울특별시 강남구 논현로 88 3층 (개포동, 노엘빌딩)",127.0451293,37.47781318
다나약국,약국,서울특별시 마포구 대흥로 186-2 1층 (대흥동),126.9460935,37.55573494
다나약국,약국,서울특별시 노원구 석계로 95 (월계동),127.0611745,37.62291493
다나약국,약국,서울특별시 서초구 효령로 229 서울빌딩 1층 (서초동),127.0091025,37.48387144
다나약국,약국,서울특별시 구로구 경인로 216 (오류동),126.8448615,37.49620757
다나약국,약국,서울특별시 송파구 오금로31길 3 우성빌딩 (방이동),127.121155,37.50647207
다나약국,약국,서울특별시 중랑구 사가정로49길 50 (면목동),127.0869247,37.58315943
다나온누리약국,약국,서울특별시 관악구 관악로 240 1층 (봉천동),126.9565796,37.48561442
다나은약국,약국,서울특별시 강서구 화곡로 194-15 (화곡동),126.8436776,37.54267001
다나을약국,약국,"서울특별시 강북구 도봉로 333 6층 (수유동, 정우빌딩)",127.0250549,37.63787475
다나을약국,약국,서울특별시 성동구 장터1길 2 (금호동3가),127.0169433,37.54868086
다나한약국,약국,서울특별시 관악구 청룡길 20 (봉천동),126.9460175,37.4809515
다니엘약국,약국,"서울특별시 용산구 이촌로 103 1층 (한강로3가, 천일빌딩)",126.9596012,37.52405757
다드림약국,약국,서울특별시 구로구 가마산로 211 101호 (구로동),126.8845271,37.49358505
다래약국,약국,"서울특별시 강남구 논현로 508 지하1층 (역삼동, GS강남타워)",127.0373359,37.50199454
다마트약국,약국,서울특별시 강서구 금낭화로 135 (방화동),126.8124376,37.57744406
다모아약국,약국,"서울특별시 노원구 동일로 1379 105,106호 (상계동)",127.0608947,37.65180523
다민약국,약국,"서울특별시 양천구 신정이펜2로 20 401호 (신정동, 서남프라자1)",126.8322922,37.51274349
다보약국,약국,서울특별시 금천구 시흥대로26길 9 (시흥동),126.9042817,37.4418672
다보약국,약국,서울특별시 서초구 서초대로40길 77 101호 (서초동),127.0087529,37.4882405
다사랑약국,약국,서울특별시 송파구 올림픽로43길 26 (풍납동),127.1149952,37.52515085
다사랑약국,약국,"서울특별시 노원구 한글비석로 254 305호 (중계동, 대명프라자)",127.0770853,37.65040304
다사랑약국,약국,"서울특별시 서초구 서초대로74길 11 지하2층 (서초동, 삼성전자빌딩)",127.0269145,37.49663309
다산온누리약국,약국,서울특별시 중구 다산로 133-1 (신당동),127.0109636,37.55587273
다솜약국,약국,서울특별시 서초구 신반포로 41 K동 12호 (반포동),126.9890324,37.5019634
다솜약국,약국,서울특별시 동작구 상도로 82 (대방동),126.9297013,37.49947336
다솜약국,약국,"서울특별시 광진구 천호대로 671 (구의동, 파크타운)",127.0905328,37.55133973
다솜약국,약국,서울특별시 중랑구 면목로 475 (상봉동),127.0858608,37.59426823
다솜약국,약국,"서울특별시 강남구 도곡로 205 1층 (역삼동, 원경빌딩)",127.0413619,37.49291553
다영약국,약국,서울특별시 영등포구 도신로60길 7 (신길동),126.9174364,37.51147362
다온약국,약국,"서울특별시 강남구 테헤란로 328 401호 (역삼동, 동우빌딩)",127.0476805,37.50371005
다온약국,약국,"서울특별시 노원구 노해로 495 삼성빌딩 1층 102,103호 (상계동)",127.0630887,37.65511785
다온약국,약국,서울특별시 광진구 긴고랑로 41 1층 (중곡동),127.0809137,37.56301219
다온약국,약국,"서울특별시 은평구 은평로 123 1층 101호 (응암동, 응암아네스트)",126.9215218,37.60055572
다온약국,약국,서울특별시 강서구 공항대로 269-15 힐스테이트에코마곡 309-1호 (마곡동),126.8372423,37.55961086
다온약국,약국,서울특별시 강동구 천호옛길 98 (성내동),127.1262954,37.53722026
다온약국,약국,서울특별시 동대문구 답십리로 273 한양빌딩 1층 (장안동),127.0708219,37.57268348
다올약국,약국,서울특별시 중랑구 봉우재로 232 현문학원 1층 (망우동),127.0986126,37.59510096
다올약국,약국,서울특별시 양천구 남부순환로40길 7 (신월동),126.8281529,37.53490892
다원약국,약국,서울특별시 금천구 독산로93길 41 (독산동),126.9008788,37.47388434
다은약국,약국,서울특별시 동작구 장승배기로20길 2 (노량진동),126.9404239,37.50832186
다은온누리약국,약국,"서울특별시 관악구 신림로 169 1층 (신림동, 영창빌딩)",126.9337136,37.47424006
다인약국,약국,"서울특별시 송파구 올림픽로 76 1층 104-1호 (잠실동, J타워)",127.0791825,37.51156239
다인약국,약국,서울특별시 영등포구 선유로 70 2층 206-2호 (문래동3가),126.890146,37.52016244
다인약국,약국,"서울특별시 서초구 남부순환로 2614 302호 (양재동, 한솔로이젠트)",127.0366749,37.48447402
다정약국,약국,서울특별시 송파구 백제고분로 349 자재백화점 1층 (석촌동),127.1049495,37.50453397
다정약국,약국,"서울특별시 용산구 한강대로104길 51 1층 (동자동, 남영빌딩(제1호))",126.974979,37.55057483
다정약국,약국,서울특별시 강북구 월계로 19 (미아동),127.0321292,37.61025216
다정약국,약국,"서울특별시 성북구 서경로 27 1층 (정릉동, 예닮빌딩)",127.0148577,37.60624915
다정약국,약국,"서울특별시 노원구 한글비석로14길 8 105호 (중계동, 주공2단지상가)",127.0782681,37.65837627
다정약국,약국,서울특별시 강동구 양재대로 1377 2층 204호 (성내동),127.1362624,37.52922363
다정약국,약국,"서울특별시 관악구 남부순환로 1485 1층 (신림동, 삼남빌딩)",126.9156493,37.48235103
다정온누리약국,약국,"서울특별시 강남구 논현로 511 3층 (역삼동, YandC빌딩)",127.0359515,37.5022168
다정옵티마약국,약국,서울특별시 중랑구 동일로143길 29 (중화동),127.0768608,37.60504794
다정한약국,약국,"서울특별시 은평구 역말로 40 (역촌동, 무궁화빌딩)",126.9146735,37.60563371
다현약국,약국,서울특별시 강남구 언주로167길 46 1층 2호 (신사동),127.0293913,37.52660517
단골약국,약국,서울특별시 강북구 삼양로27길 35-21 미아프라자 1층 105호 (미아동),127.0189344,37.61797661
단골약국,약국,서울특별시 동작구 보라매로 61-1 (신대방동),126.927128,37.49498009
단골온누리약국,약국,"서울특별시 종로구 지봉로 50 (숭인동, 필빌딩)",127.0159582,37.57453202
단비약국,약국,"서울특별시 중랑구 봉화산로 194 7층 705호 (신내동, 신아타운)",127.0947074,37.60645358
단비온누리약국,약국,서울특별시 송파구 올림픽로 145 1층 A27호 (잠실동),127.0870421,37.51198105
단풍약국,약국,서울특별시 중랑구 동일로 680 (면목동),127.0804278,37.59109316
달구약국,약국,"서울특별시 강남구 양재대로55길 6 113호 (일원동, 수서1단지상가)",127.0883147,37.49132181
달약국,약국,서울특별시 강동구 천호대로 1171 (길동),127.1414013,37.53412921
달약국,약국,서울특별시 강서구 마곡중앙6로 66 퀸즈파크텐 112호 (마곡동),126.8343623,37.55991698
답십리백화점약국,약국,"서울특별시 동대문구 전농로 102 1층 (답십리동, 목련빌딩)",127.0578549,37.57398206
답십리코코약국,약국,"서울특별시 동대문구 답십리로 130 301동 103호 (답십리동, 래미안위브아파트단지내상가)",127.0546075,37.57197787
당고개약국,약국,서울특별시 노원구 상계로 309-1 (상계동),127.0799954,37.67087151
당산삼성약국,약국,서울특별시 영등포구 당산로44길 3 (당산동5가),126.9010777,37.53191448
당산수약국,약국,서울특별시 영등포구 양평로 53 (당산동5가),126.9004161,37.53431772
당산스타약국,약국,서울특별시 영등포구 양평로 22 1층 (당산동6가),126.903932,37.53315475
당산열린약국,약국,"서울특별시 영등포구 양평로 32 (당산동6가, 누가빌딩)",126.902929,37.53367923
대건약국,약국,"서울특별시 영등포구 양평로 99 (양평동4가,1층)",126.8960729,37.53648028
대경약국,약국,서울특별시 종로구 종로51나길 2 (창신동),127.0122961,37.57257454
대광약국,약국,"서울특별시 강남구 개포로109길 9 101호 (개포동, 대치임대A상가 )",127.0750976,37.49575478
대광약국,약국,서울특별시 동작구 상도로45길 6 (상도1동),126.9508307,37.50028555
대교약국,약국,서울특별시 마포구 도화길 10 1층 (도화동),126.9474063,37.53980074
대교약국,약국,서울특별시 송파구 가락로 153 1층 (송파동),127.1126361,37.50315114
대교약국,약국,서울특별시 영등포구 여의대방로 383 (여의도동),126.9315036,37.51934337
대남약국,약국,서울특별시 동작구 상도로22길 26 (상도동),126.9369484,37.50217055
대도약국,약국,서울특별시 종로구 우정국로 38-1 1층 (견지동),126.9832547,37.57248137
대도약국,약국,서울특별시 중구 퇴계로 183 (필동1가),126.9923164,37.56131478
대동약국,약국,서울특별시 관악구 관악로 185 1층 (봉천동),126.9526605,37.48179936
대동약국,약국,서울특별시 강북구 삼양로 207 (미아동),127.0197779,37.6221509
대동약국,약국,서울특별시 송파구 가락로 175 1층 (송파동),127.114325,37.50447374
대림당약국,약국,서울특별시 성북구 동소문로 231 1층 (길음동),127.0223795,37.60285815
대림대학약국,약국,서울특별시 영등포구 시흥대로187길 3 (대림동),126.9085257,37.49240068
대림미소약국,약국,"서울특별시 영등포구 도림로 135 1층 107,108호 (대림동)",126.8969516,37.49322441
대림백화점약국,약국,서울특별시 영등포구 신길로 40 (신길동),126.9085824,37.49614717
대림약국,약국,서울특별시 관악구 낙성대로 22 (봉천동),126.9587865,37.47652533
대림약국,약국,서울특별시 영등포구 도림로 155 (대림동),126.89882,37.49440452
대림약국,약국,서울특별시 서초구 사임당로 105 (서초동),127.0212383,37.49054407
대림약국,약국,"서울특별시 구로구 신도림로 16 주상가동 209호 (신도림동, 대림2차)",126.8789149,37.5056823
대림약국,약국,"서울특별시 은평구 은평터널로 65 101호,110호 (수색동, 대림한숲타운아파트)",126.8989883,37.58632363
대림온누리약국,약국,서울특별시 동작구 시흥대로 662 (신대방동),126.9081974,37.49063346
대림우리약국,약국,서울특별시 구로구 도림로 92 (구로동),126.8935814,37.49049291
대림타워약국,약국,서울특별시 영등포구 가마산로48길 16 302호 (대림동),126.901219,37.50148665
대명당약국,약국,서울특별시 동대문구 천호대로13길 56 (용두동),127.0300515,37.57647846
대명약국,약국,서울특별시 종로구 종로 256-1 대명빌딩 1층 (종로5가),127.0062715,37.57086849
대명약국,약국,서울특별시 영등포구 영신로19길 7 (영등포동),126.9069246,37.5142685
대명약국,약국,"서울특별시 금천구 벚꽃로 298 104호 (가산동, 대륭포스트타워6차)",126.8838717,37.48144038
대명약국,약국,"서울특별시 관악구 신림로 158 1층 1호 (신림동, 영광빌딩)",126.9338755,37.47292936
대명약국,약국,서울특별시 강북구 삼양로 429 (수유동),127.0165123,37.6418127
대박약국,약국,"서울특별시 종로구 종로 19 3층 327호 (종로1가, 르메이에르종로타운)",126.9799233,37.57084432
대방약국,약국,"서울특별시 동작구 등용로 127 103동 203호 (대방동, 현대아파트상가)",126.9310709,37.51290004
대생약국,약국,서울특별시 강서구 강서로 171 (화곡동),126.8398099,37.54177865
대서울약국,약국,서울특별시 종로구 창경궁로 158 2층 (원남동),126.997571,37.57645844
대성모약국,약국,서울특별시 영등포구 시흥대로 655 1층 (대림동),126.9072112,37.49044608
대성약국,약국,"서울특별시 구로구 개봉로3길 35 (개봉동, 성은빌딩)",126.8543239,37.48618254
대성약국,약국,서울특별시 관악구 청림길 8 (봉천동),126.958922,37.48820982
대성약국,약국,서울특별시 강서구 강서로 307 서울스타병원빌딩 1층 (내발산동),126.8362261,37.55322816
대성옵티마약국,약국,서울특별시 용산구 회나무로 23 (이태원동),126.9892005,37.53934446
대신약국,약국,서울특별시 중랑구 동일로 802 1층 (중화동),127.0797154,37.60208587
대영약국,약국,서울특별시 마포구 모래내로7길 44 1층 (성산동),126.9106239,37.567488
대영약국,약국,"서울특별시 동작구 만양로 26 215호 (상도동, 건영아파트상가)",126.9509925,37.50792871
대영약국,약국,서울특별시 도봉구 도봉로129길 26 (쌍문동),127.0369193,37.65551376
대영약국,약국,서울특별시 성북구 월곡로5길 66 (종암동),127.036218,37.59917728
대영약국,약국,"서울특별시 서초구 잠원로14길 29 125호 (잠원동, 설악복지센타)",127.0154489,37.51785414
대영진약국,약국,서울특별시 중랑구 용마공원로 16 (망우동),127.1010657,37.59420451
대우당약국,약국,서울특별시 금천구 은행나무로 34 (시흥동),126.9061337,37.45070194
대우당약국,약국,서울특별시 동작구 상도로 102 (상도동),126.9317759,37.49994197
대우마이빌약국,약국,"서울특별시 양천구 공항대로 552 1층 (목동, 대우마이빌빌딩)",126.8669501,37.54955382
대우사약국,약국,서울특별시 중구 세종대로 22 (남대문로5가),126.9742919,37.55853401
대우실로암약국,약국,서울특별시 양천구 월정로50길 10 (신월동),126.831053,37.54167078
대우약국,약국,서울특별시 서대문구 통일로40안길 3-1 (홍제동),126.9434847,37.59042209
대우약국,약국,서울특별시 성동구 독서당로 276 (금호동4가),127.0199553,37.54703466
대우약국,약국,서울특별시 은평구 통일로 749 1층 (대조동),126.9281644,37.61194946
대우약국,약국,서울특별시 강북구 삼양로 348 (수유동),127.017614,37.63456703
대우약국,약국,서울특별시 구로구 천왕로 106 골드프라자 104호 (오류동),126.8385588,37.48604017
대우프라자약국,약국,"서울특별시 구로구 고척로 237 (고척동, 부성빌딩)",126.8592875,37.50661618
대웅약국,약국,서울특별시 도봉구 우이천로 298 (쌍문동),127.02943,37.64436272
대웅프라자약국,약국,"서울특별시 구로구 새말로 93 (구로동, 신도림태영타운)",126.8900014,37.50620985
대원사약국,약국,서울특별시 중랑구 중랑역로 90 대원메디컬빌딩 (중화동),127.0779938,37.60139587
대원약국,약국,"서울특별시 영등포구 당산로 34 (문래동3가,4층)",126.8964935,37.51746278
대원약국,약국,서울특별시 성북구 돌곶이로14길 51 (석관동),127.062504,37.60886686
대유약국,약국,서울특별시 서대문구 모래내로 359 (홍은동),126.9358787,37.5818683
대인당온누리약국,약국,서울특별시 금천구 시흥대로 237 (시흥동),126.900086,37.45500477
대일약국,약국,서울특별시 동작구 동작대로27길 22 (사당동),126.9807074,37.48760452
대일약국,약국,서울특별시 중랑구 상봉중앙로1길 32 1층 (상봉동),127.0876263,37.59865946
대자연약국,약국,서울특별시 강동구 구천면로 291 (천호동),127.1335499,37.54594892
대제일약국,약국,서울특별시 금천구 독산로85길 13 (독산동),126.9023891,37.47230668
대조약국,약국,서울특별시 은평구 서오릉로 140 1층 (대조동),126.9175874,37.61133674
대중약국,약국,서울특별시 성동구 왕십리로 379 (하왕십리동),127.0281137,37.56456726
대지약국,약국,서울특별시 금천구 독산로 252 (독산동),126.9026284,37.46923317
대지약국,약국,서울특별시 강북구 삼양로 247 3층 (미아동),127.0177469,37.62551705
대지약국,약국,서울특별시 마포구 포은로 87 1층 (망원동),126.9051117,37.55482684
대창약국,약국,서울특별시 강북구 월계로 53 (미아동),127.0353577,37.61193348
대청약국,약국,서울특별시 강남구 개포로 623 대청타워 106호 (개포동),127.0796476,37.49434131
대치메디칼약국,약국,"서울특별시 강남구 남부순환로 2935 1층 (대치동, 대치 프라자)",127.0613332,37.49399188
대치약국,약국,서울특별시 강남구 역삼로 417 1층 (대치동),127.0526946,37.50135515
대치예스약국,약국,"서울특별시 강남구 도곡로 408 410호 (대치동, 디마크 빌딩)",127.0552329,37.49662142
대치이화약국,약국,"서울특별시 강남구 역삼로 536 3층 (대치동, 동성빌딩)",127.061695,37.50382147
대치참약국,약국,"서울특별시 강남구 남부순환로 2927 대치 클래시아 204호,205호 (대치동)",127.0603586,37.49367621
대치필리아약국,약국,서울특별시 강남구 도곡로63길 12 104호 (대치동),127.0544665,37.49780264
대풍약국,약국,"서울특별시 성동구 사근동길 6 (행당동, 한양제일빌딩)",127.0420186,37.56014799
대풍약국,약국,서울특별시 중구 동호로11길 43 (신당동),127.009054,37.55334886
대학당약국,약국,서울특별시 관악구 원신길 2-1 (신림동),126.9330709,37.47201621
대학솔약국,약국,서울특별시 동대문구 안암로 158 1층 (제기동),127.0352882,37.58860644
대학약국,약국,서울특별시 강서구 화곡로 152 CUBE152 (화곡동),126.8386737,37.54089582
대학약국,약국,서울특별시 은평구 통일로 1030 은평헤스티아 B101호 (진관동),126.9176952,37.63419173
대학약국,약국,서울특별시 서대문구 연세로11길 4 (창천동),126.936641,37.55905557
대학약국,약국,"서울특별시 송파구 강동대로 57 1, 2층 (풍납동)",127.1139454,37.52737495
대학약국,약국,"서울특별시 종로구 창경궁로 160 1,2층 (원남동)",126.9975106,37.57670605
대학약국,약국,서울특별시 성북구 고려대로 89 (안암동5가),127.0291943,37.586489
대학약국,약국,서울특별시 동작구 흑석로 106 (흑석동),126.9613654,37.50799449
대학약국,약국,서울특별시 동대문구 경희대로 15 (회기동),127.0523835,37.59292352
대학약국,약국,서울특별시 강동구 동남로 889 102호 (명일동),127.1559486,37.5530548
대학약국,약국,서울특별시 성동구 사근동길 4 1층 (행당동),127.0415803,37.55996485
대학약국,약국,서울특별시 구로구 구로동로 149-1 (구로동),126.8935481,37.4913776
대학온누리약국,약국,서울특별시 서대문구 홍은중앙로 100-1 (홍은동),126.9486325,37.59939441
대한당약국,약국,서울특별시 용산구 우사단로10길 42 (한남동),126.9978645,37.53283546
대한약국,약국,서울특별시 강동구 천호대로 1027 (천호동),127.1263949,37.53810724
대한약국,약국,서울특별시 송파구 법원로11길 11 문정현대지식산업센터1-1 A동 101호 (문정동),127.1181769,37.48528048
대한약국,약국,서울특별시 금천구 금하로 711 (시흥동),126.909007,37.45112087
대한약국,약국,서울특별시 성동구 동호로 100 511호 (금호동3가),127.0177526,37.54958327
대한약국,약국,"서울특별시 종로구 대학로5길 57 1,2층 (연건동)",127.0015717,37.57961551
대한약국,약국,서울특별시 중랑구 신내로16길 17 105호 (신내동),127.0971795,37.61417413
대한약국,약국,서울특별시 도봉구 삼양로 586 (쌍문동),127.0133734,37.65537283
대해약국,약국,서울특별시 중구 퇴계로 393-1 써니캐슬 1층 101호 (흥인동),127.0153181,37.56550014
대현온누리약국,약국,서울특별시 강서구 양천로 556 강서메디칼센터 105호 (등촌동),126.8607282,37.55780248
대형약국,약국,서울특별시 서대문구 북아현로 4 (북아현동),126.9564391,37.55782674
대호약국,약국,"서울특별시 노원구 한글비석로 384 대호프라자 317호, 318호 (중계동)",127.0732396,37.65980816
대화약국,약국,서울특별시 중구 동호로5길 22 (신당동),127.0120899,37.55177057
대화약국,약국,"서울특별시 영등포구 국제금융로6길 33 (여의도동, 맨하탄빌딩)",126.9269123,37.52079156
대화약국,약국,서울특별시 광진구 동일로 278 나성빌딩 1층 (군자동),127.0722802,37.55616594
대흥365약국,약국,서울특별시 마포구 백범로 98 1층 (대흥동),126.9422352,37.54761582
대흥당약국,약국,서울특별시 동대문구 답십리로15길 30 (전농동),127.0473422,37.57771093
대흥사약국,약국,서울특별시 종로구 돈화문로6가길 40 (봉익동),126.9922242,37.57249776
대흥약국,약국,서울특별시 영등포구 신길로39길 13 (신길동),126.90948,37.50678881
대흥약국,약국,서울특별시 마포구 대흥로 192-1 1층 (대흥동),126.9461327,37.55617444
대흥온누리약국,약국,"서울특별시 마포구 신촌로 160 106호 (대흥동, 이대역스타힐스)",126.9432856,37.55630977
더샾스타시티약국,약국,"서울특별시 광진구 아차산로 272 (자양동, 스타시티쇼핑몰)",127.0729963,37.53855835
더건강약국,약국,서울특별시 강서구 강서로 206 1층 (화곡동),126.8380438,37.54452688
더건강약국,약국,서울특별시 송파구 중대로 193 주식회사홈캐스트 1층 (가락동),127.1257828,37.49934354
더나은약국,약국,서울특별시 광진구 천호대로 570 1층 (능동),127.0810283,37.5560767
더바른약국,약국,서울특별시 강동구 구천면로 241 1층 (천호동),127.1306286,37.54207535
더밝은약국,약국,서울특별시 성동구 마조로9길 15 1층 (행당동),127.0397676,37.56117687
더블유수약국,약국,서울특별시 강남구 압구정로 316 1층 (신사동),127.0360265,37.52871247
더블유스토어아름다운약국,약국,서울특별시 영등포구 영중로 6 (영등포동3가),126.9066522,37.51695875
더블유스토어연세약국,약국,"서울특별시 마포구 신촌로 92 1층 (노고산동, 카리스빌딩)",126.9356802,37.55517745
더블유스토어푸른약국,약국,"서울특별시 구로구 도림로 73 (구로동, 인성빌딩)",126.8915116,37.48985582
더블유스토어하이약국,약국,서울특별시 서초구 사임당로 39 한성빌딩 (서초동),127.0140937,37.4884169
더블유약국,약국,"서울특별시 강남구 강남대로 468 1층 (역삼동, 충림빌딩)",127.0251459,37.50415684
더블유약국,약국,서울특별시 동작구 양녕로 264 (상도1동),126.9485677,37.50330807
더블유약국,약국,서울특별시 송파구 올림픽로 100 효창타워 1층 (잠실동),127.0816883,37.51141581
더사랑약국,약국,서울특별시 성북구 아리랑로 16 1층 104호 (동선동4가),127.0165053,37.59423434
더선약국,약국,"서울특별시 양천구 공항대로 630 1층 (목동, 어바니엘)",126.8747152,37.5465363
더조은약국,약국,서울특별시 강서구 곰달래로49길 29 산호빌딩 103호 (화곡동),126.8575796,37.53294775
더조은약국,약국,"서울특별시 강남구 자곡로3길 21 상가1동 B202호 (자곡동, LH강남힐스테이트)",127.0881053,37.47176041
더조은약국,약국,서울특별시 노원구 한글비석로 235 하나프라자빌딩 4층 405호 (중계동),127.0763449,37.64879934
더클래식약국,약국,"서울특별시 광진구 능동로 90 1층 104-2호 (자양동, 더클래식500)",127.0709218,37.53836271
더튼튼약국,약국,서울특별시 도봉구 노해로65길 10 1층 (창동),127.0466071,37.65183897
더푸른약국,약국,"서울특별시 관악구 관악로 195 1층 104호 (봉천동, 관악위버폴리스)",126.9530989,37.48256421
더하늘약국,약국,서울특별시 송파구 올림픽로 119 잠실파인애플상가 3층 3B12호 (잠실동),127.0841859,37.5120837
더하늘약국,약국,서울특별시 서초구 강남대로 509 1층 (반포동),127.0224925,37.50764558
더함약국,약국,서울특별시 송파구 올림픽로 145 리센츠 4층 4B01호 (잠실동),127.0870421,37.51198105
더행복약국,약국,"서울특별시 은평구 은평로 200-1 가동 1층 (응암동, 삼영빌딩)",126.9300686,37.60091169
더행복한약국,약국,"서울특별시 마포구 토정로37길 46 지하1층 10,16호 (도화동, 정우빌딩)",126.9474024,37.54281907
더힘찬약국,약국,서울특별시 성동구 독서당로 302 3층 (금호동4가),127.0227315,37.54761259
덕성온누리약국,약국,"서울특별시 성북구 아리랑로 89 102호 (돈암동, 일신건영휴먼빌 상가 )",127.0123705,37.60120274
덕수약국,약국,서울특별시 중랑구 중랑역로 33 (중화동),127.075807,37.59721598
덕우약국,약국,서울특별시 구로구 가마산로22길 33 (구로동),126.8880634,37.49291947
덕인약국,약국,서울특별시 강동구 구천면로 287 (천호동),127.1333039,37.54561582
덕현당한약국,약국,서울특별시 동대문구 고산자로 445 (제기동),127.0381332,37.57947687
도곡메디칼약국,약국,"서울특별시 강남구 도곡로 242 (도곡동, 도곡삼호상가 지하1층 103호 1층 201호)",127.0445787,37.49317134
도곡명약국,약국,"서울특별시 강남구 도곡로28길 8 상가동 102,103호 (도곡동, 도곡1차 I PARK)",127.0439491,37.4923036
도곡우리약국,약국,"서울특별시 강남구 선릉로 225 214호 (도곡동, 도곡렉슬아파트)",127.0527204,37.49536571
도곡타워약국,약국,"서울특별시 강남구 언주로30길 21 B1층 101-24A호 (도곡동, 아카데미스위트)",127.0522439,37.4882455
도남희약국,약국,서울특별시 관악구 난향2길 8 1층 (신림동),126.9185594,37.46332653
도담약국,약국,"서울특별시 서대문구 신촌로35길 10 상가동 2층 206호 (북아현동, e편한세상신촌 4단지)",126.9558993,37.55799893
도담약국,약국,서울특별시 성북구 동소문로 305 지층 (길음동),127.0282137,37.60736806
도담약국,약국,서울특별시 양천구 목동중앙남로4길 4 (목동),126.8677187,37.53646472
도담약국,약국,"서울특별시 성동구 왕십리로 410 상가L동 221-1, 222호 (하왕십리동, 센트라스)",127.0238056,37.56695088
도담약국,약국,서울특별시 송파구 동남로 209 1층 101호 (가락동),127.1310632,37.49619862
도래약국,약국,서울특별시 송파구 마천로 341 (마천동),127.1525192,37.49319904
도림우리들약국,약국,서울특별시 영등포구 도신로15길 40 (도림동),126.8965733,37.50860966
도봉월드약국,약국,서울특별시 도봉구 마들로 650 (방학동),127.0470649,37.6680287
도봉태평양약국,약국,서울특별시 도봉구 도봉로 821 1층 (도봉동),127.0447582,37.67776323
도심공항약국,약국,서울특별시 강남구 테헤란로87길 22 2층 D-1호 (삼성동),127.0594433,37.50963245
도영약국,약국,서울특별시 금천구 독산로50길 90 (시흥동),126.909272,37.46234972
도영약국,약국,서울특별시 송파구 오금로 507 거여빌딩 1층 (거여동),127.1451808,37.49323131
도움약국,약국,서울특별시 송파구 백제고분로22길 36 1층 (삼전동),127.0880448,37.50094524
도움약국,약국,"서울특별시 강남구 압구정로29길 68 103호 (압구정동, 현대아파트주구센타)",127.0280262,37.53175655
도원약국,약국,서울특별시 성동구 장터길 45-1 (금호동3가),127.0210693,37.54842276
도원약국,약국,서울특별시 마포구 마포대로 52 고려아카데미텔Ⅱ 1층 105호 (도화동),126.9476626,37.54033825
도일약국,약국,서울특별시 서초구 사평대로55길 10 (반포동),127.0229556,37.50465043
독산메디칼약국,약국,서울특별시 금천구 독산로 210 (독산동),126.9022851,37.46574994
독산종로약국,약국,서울특별시 금천구 독산로 360 (독산동),126.9040243,37.47885095
독수리약국,약국,서울특별시 강남구 일원로 95 106호 (일원동),127.0835246,37.48573694
독수리약국,약국,"서울특별시 송파구 중대로 135 (가락동, IT벤처타워 동관 101호)",127.1224265,37.49509529
독수리약국,약국,"서울특별시 서대문구 연세로 36 독수리빌딩 1층, 2층 (창천동)",126.9372416,37.55878578
독일사약국,약국,서울특별시 중구 마장로9길 45 1층 (황학동),127.0193011,37.57034874
독일약국,약국,"서울특별시 구로구 오리로 1297 (궁동, 청파빌딩)",126.8291043,37.49722897
독일약국,약국,서울특별시 종로구 종로 314 (창신동),127.012619,37.5719032
독일약국,약국,서울특별시 마포구 도화4길 19 1층 (도화동),126.9510248,37.54106932
돌곶이온누리약국,약국,"서울특별시 성북구 화랑로 248 장위뉴타워 102호, 102-1호 (석관동)",127.056905,37.61040295
동경약국,약국,서울특별시 마포구 신촌로16길 4 1층 101호 (노고산동),126.9348166,37.55550456
동광약국,약국,서울특별시 용산구 장문로 66-1 (보광동),126.9969653,37.52600839
동광약국,약국,서울특별시 동작구 동작대로 129 (사당동),126.9818826,37.48829138
동국약국,약국,서울특별시 중구 서애로1길 16 (필동3가),126.9989142,37.56084722
동남약국,약국,서울특별시 중랑구 신내로 45 해성빌딩 1층 (신내동),127.0955517,37.60314169
동남약국,약국,서울특별시 종로구 종로 124 (종로3가),126.9912792,37.57012315
동남온누리약국,약국,서울특별시 강동구 성내로 4 (성내동),127.1211825,37.53040441
동대문보건약국,약국,서울특별시 동대문구 고산자로28가길 2 (용두동),127.0403043,37.57495716
동대문연약국,약국,서울특별시 종로구 종로 272 동대문종합시장 신관 신관동 지하1층 018호 (종로6가),127.0080914,37.57081867
동대문허브약국,약국,서울특별시 중구 장충단로 263 밀리오레상가건물 13층 6호 (을지로6가),127.0084723,37.56811504
동명약국,약국,서울특별시 강동구 양재대로 1396 (둔촌동),127.1378288,37.53064249
동명온누리약국,약국,"서울특별시 강남구 선릉로64길 5 (대치동, 라이온스빌딩)",127.0526313,37.49785998
동문약국,약국,서울특별시 노원구 공릉로59나길 78-10 (하계동),127.0701257,37.63577053
동문약국,약국,서울특별시 중구 을지로41길 14 (을지로6가),127.0062637,37.56700501
동민약국,약국,"서울특별시 성북구 오패산로 99 102호 (하월곡동, 동민빌딩)",127.0351618,37.61074745
동방약국,약국,서울특별시 관악구 인헌6길 9 (봉천동),126.9661992,37.4738685
동방약국,약국,서울특별시 강서구 강서로 186 1층 (화곡동),126.8393814,37.54310916
동방약국,약국,서울특별시 노원구 노해로 456 동방빌딩 1층 (상계동),127.058799,37.65358872
동보당약국,약국,서울특별시 관악구 관악로 236 (봉천동),126.9563789,37.48539717
동보약국,약국,서울특별시 영등포구 영중로 22 (영등포동3가),126.9059509,37.51834565
동보옵티마약국,약국,서울특별시 강남구 도곡로14길 16 1층 (도곡동),127.0371712,37.48996192
동부대학약국,약국,서울특별시 동대문구 무학로 122 1층 (용두동),127.0308747,37.57501254
동부메디칼약국,약국,서울특별시 동대문구 무학로 128 (용두동),127.0307774,37.57561939
동부약국,약국,서울특별시 중랑구 망우로 503 동부약국 1층 (망우동),127.1080758,37.60073121
동부약국,약국,서울특별시 용산구 이촌로 245 (이촌동),126.9744262,37.51994779
동부약국,약국,서울특별시 성북구  숭인로2길 61-0 (길음동),127.0239777,37.61139131
동북약국,약국,서울특별시 강북구 솔샘로 233 305호 (미아동),127.0190999,37.62043001
동산약국,약국,서울특별시 은평구 통일로87길 5 (갈현동),126.9191878,37.62326247
동산약국,약국,"서울특별시 동대문구 왕산로 225 A동 1층 32-1호 (청량리동, 미주상가)",127.0472093,37.58212252
동산약국,약국,"서울특별시 노원구 동일로 1280 1층 109호,110호 (중계동, 무지개아파트단지내상가)",127.0658038,37.64358175
동산온누리약국,약국,서울특별시 강서구 양천로 606 (등촌동),126.8652055,37.55519814
동삼약국,약국,서울특별시 중랑구 면목로 344-1 (면목동),127.0886571,37.58272724
동서약국,약국,서울특별시 종로구 종로 222 (종로5가),127.0023569,37.57075966
동서약국,약국,"서울특별시 송파구 마천로5길 4 (오금동, 4층)",127.1267409,37.50872298
동서온누리약국,약국,서울특별시 강동구 풍성로37가길 39 101호 (성내동),127.1285124,37.53296159
동서옵티마약국,약국,서울특별시 성북구 동소문로 302 1층 (하월곡동),127.0285325,37.60678571
동서울약국,약국,서울특별시 송파구 강동대로 61-1 지층 (풍납동),127.114413,37.52722883
동서울약국,약국,"서울특별시 광진구 강변역로 50 124호 (구의동, 동서울터미널빌딩)",127.0941844,37.53453865
동선한약국,약국,서울특별시 성북구 동소문로26다길 17 1층 (동선동3가),127.0201459,37.59465029
동성약국,약국,"서울특별시 강서구 금낭화로23길 8 123호 (방화동, 동성아파트단지내상가)",126.8122211,37.57974004
동성약국,약국,서울특별시 구로구 우마2길 24 (가리봉동),126.8892225,37.48202475
동성약국,약국,"서울특별시 강남구 삼성로 212 180호 (대치동, 은마상가에이블럭)",127.066997,37.49879449
동성약국,약국,서울특별시 중랑구 겸재로 84 (면목동),127.0772227,37.58589222
동성온누리약국,약국,서울특별시 성북구 안암로 105 (안암동5가),127.0314336,37.58510642
동시약국,약국,"서울특별시 종로구 종로 202-1 (종로4가, 동흥빌딩)",127.0002267,37.57063241
동신당약국,약국,서울특별시 영등포구 양산로 138-1 (당산동1가),126.8982802,37.52361009
동신약국,약국,서울특별시 양천구 목동동로12길 17 (목동),126.8731872,37.522923
동신약국,약국,서울특별시 동대문구 하정로5길 1 1층 (신설동),127.0262693,37.57598446
동아약국,약국,"서울특별시 동대문구 서울시립대로 31 102-119호 (전농동, 동아아파트)",127.0458117,37.57483318
동아약국,약국,"서울특별시 송파구 올림픽로 114 2층 (잠실동, 서경빌딩)",127.083187,37.51138848
동아약국,약국,서울특별시 강북구 도봉로 118 1층 (미아동),127.0291571,37.61947116
동아약국,약국,서울특별시 종로구 종로 192 (종로4가),126.9990768,37.57061059
동아약국,약국,서울특별시 강동구 천호대로 997 (천호동),127.1233014,37.53933912
동아약국,약국,서울특별시 중랑구 동일로130길 52 (중화동),127.0829548,37.60017191
동아약국,약국,서울특별시 용산구 회나무로 16 (이태원동),126.9887756,37.53888744
동아온누리약국,약국,서울특별시 금천구 시흥대로 371 (독산동),126.8973076,37.46669137
동안메디약국,약국,서울특별시 동대문구 천호대로17길 75 1층 (용두동),127.0321384,37.57744777
동암당약국,약국,서울특별시 동대문구 고산자로44길 2 (제기동),127.0388626,37.58240459
동양당한약국,약국,"서울특별시 강북구 노해로17길 21 1층 8호 (수유동, 수유중앙시장)",127.0211762,37.64033658
동양약국,약국,서울특별시 강남구 자곡로 180 109-2호 (자곡동),127.1032021,37.47367339
동오약국,약국,서울특별시 용산구 보광로 18 (보광동),127.0009613,37.52638823
동우약국,약국,"서울특별시 서초구 남부순환로356길 15 111,112,126호 (양재동, 양재종합시장)",127.0379667,37.48431233
동원약국,약국,서울특별시 관악구 신림로 360-1 (신림동),126.9294599,37.48649834
동의당약국,약국,서울특별시 동작구 여의대방로10길 38 (신대방동),126.9139955,37.49343745
동의당한약국,약국,서울특별시 구로구 도림로 31 2층 (구로동),126.8879615,37.48720886
동의림생약국,약국,서울특별시 양천구 목동서로 133-2 (목동),126.8759873,37.53160204
동의보감 한약국,약국,서울특별시 동작구 사당로22길 3 602호 (사당동),126.9768019,37.48327546
동의보감한약국,약국,"서울특별시 송파구 위례광장로 270 1층 G113호 (장지동, 송파와이즈더샵)",127.1428951,37.47612554
동의삼성약국,약국,서울특별시 송파구 거마로22길 49 (마천동),127.1519859,37.49689414
동의송도약국,약국,서울특별시 강서구 강서로54길 79 1층 (등촌동),126.8430256,37.55884216
동의온누리약국,약국,서울특별시 강남구 논현로 330 1층 (역삼동),127.0400509,37.4947831
동인약국,약국,서울특별시 성북구 동소문로 107 (동선동4가),127.0170508,37.59318984
동인약국,약국,서울특별시 관악구 인헌길 76 1층 (봉천동),126.96664,37.47210382
동인약국,약국,서울특별시 종로구 창신길 11 (창신동),127.0104495,37.57225026
동인프라자약국,약국,서울특별시 양천구 남부순환로40길 13 (신월동),126.8280019,37.53478755
동인프라자온누리약국,약국,"서울특별시 강남구 밤고개로1길 10 117-2호 (수서동, 수서현대벤쳐빌)",127.1018445,37.48802413
동일약국,약국,"서울특별시 노원구 동일로 1343 305호 (상계동, 동일프라자)",127.061994,37.64848789
동일약국,약국,서울특별시 양천구 월정로 139-1 (신월동),126.8373311,37.53143535
동일프라자약국,약국,"서울특별시 양천구 신정로7길 60-5 107호 (신정동, 동일프라자빌딩)",126.8381007,37.51263539
동주약국,약국,서울특별시 강동구 명일로 243 (길동),127.1467003,37.54046603
동틀약국,약국,서울특별시 성동구 동일로 135 (성수동2가),127.0650154,37.54455927
동해물약국,약국,서울특별시 구로구 구로동로 138 (구로동),126.8842944,37.49083362
동해물약국,약국,서울특별시 서초구 동광로12가길 42 1층 (방배동),126.9826047,37.48752497
동행약국,약국,"서울특별시 금천구 시흥대로 291 2층 280호 (독산동, 금천롯데캐슬골드파크3차)",126.8972353,37.46002545
동현당약국,약국,"서울특별시 강남구 언주로146길 18 (논현동, 동현아파트상가)",127.0368658,37.52007059
동현약국,약국,서울특별시 서대문구 영천시장길 16 (영천동),126.9603545,37.57116209
동현약국,약국,서울특별시 강동구 양재대로127길 19 (천호동),127.1415836,37.54524799
동호약국,약국,서울특별시 종로구 성균관로 53 (명륜3가),126.9964264,37.58740382
동호약국,약국,서울특별시 강남구 테헤란로114길 16 1층 1호 (대치동),127.0665453,37.50857259
동호일층약국,약국,서울특별시 중랑구 동일로 925 1층 (묵동),127.0768569,37.61297633
동화약국,약국,서울특별시 중구 다산로34길 47 (신당동),127.0171142,37.56178151
두레약국,약국,서울특별시 강동구 고덕로83길 6 101호 (고덕동),127.1689228,37.55740262
두리약국,약국,"서울특별시 성북구 돌곶이로 37 1층 (석관동, 상지빌딩)",127.0602449,37.60746472
두리약국,약국,서울특별시 송파구 송이로 239 도은빌딩 1층 4호 (문정동),127.1317283,37.48805129
두리약국,약국,"서울특별시 서초구 사임당로 180 201호 (서초동, 보원빌딩)",127.0292662,37.49257735
두리약국,약국,서울특별시 강남구 일원로 35 1층 (일원동),127.0811827,37.49063316
두리온누리약국,약국,서울특별시 성북구 종암로 85 1층 (종암동),127.0346273,37.59788435
두산약국,약국,서울특별시 구로구 구로중앙로 16 1층 (구로동),126.8920435,37.49183253
두산약국,약국,"서울특별시 관악구 봉천로 391 113호 (봉천동, 두산아파트)",126.9432504,37.48347131
둔촌세계로약국,약국,서울특별시 강동구 양재대로 1319 경일빌딩 1층 106호 (성내동),127.1344379,37.5241941
둔촌온누리약국,약국,"서울특별시 강동구 양재대로 1325 102,103호 (성내동)",127.1345855,37.52481982
드림삼성약국,약국,"서울특별시 관악구 구암길 106 206호 (봉천동, 관악드림타운 분산상가동)",126.9479697,37.49203949
드림약국,약국,"서울특별시 서초구 서초중앙로 124 1층 (서초동, 한림빌딩)",127.0141321,37.49285859
드림약국,약국,"서울특별시 송파구 올림픽로35길 10 파크리오상가B동 202-1호 (신천동, 파크리오)",127.1132653,37.52031509
드림약국,약국,서울특별시 영등포구 영중로 15 타임스퀘어 지하1층 128-2호 (영등포동4가),126.9037164,37.51723357
드림약국,약국,"서울특별시 도봉구 마들로 650 3층 319호 (방학동, 도봉월드상가)",127.0470649,37.6680287
드림약국,약국,"서울특별시 강북구 덕릉로 136 2층 (번동, 삼양빌딩)",127.0287718,37.63484764
드림약국,약국,서울특별시 강동구 풍성로51길 3 (성내동),127.1325119,37.53011121
드림약국,약국,"서울특별시 마포구 월드컵북로 396 B1010호 (상암동, 누리꿈스퀘어)",126.8903232,37.57944252
드림약국,약국,서울특별시 강남구 논현로 717 지하1층 일부호 (논현동),127.0295373,37.51596182
드림약국,약국,서울특별시 서대문구 수색로 26 (남가좌동),126.9157559,37.56916748
드림약국,약국,서울특별시 동대문구 천호대로 8 1층 (신설동),127.0243298,37.57477904
드림약국,약국,서울특별시 구로구 구로중앙로 8 1층 (구로동),126.892687,37.49120714
드림약국,약국,"서울특별시 노원구 동일로 1677 1층 (상계동, 제성빌딩)",127.0549572,37.67816612
드림약국,약국,서울특별시 성북구 돌곶이로27길 79 (장위동),127.0519413,37.61011723
드림온누리약국,약국,"서울특별시 도봉구 마들로 551 상가동 1층 120호 (창동, 쌍용아파트)",127.0493209,37.6599028
드림온누리약국,약국,서울특별시 양천구 목동중앙본로 68-1 (목동),126.8693324,37.54190964
드림케어약국,약국,"서울특별시 강남구 압구정로 162 1층 107호 (신사동, 베네하임시티)",127.0274656,37.52630904
드림팜약국,약국,서울특별시 강동구 아리수로93길 27 405-1호 (강일동),127.1738149,37.56562189
드림플러스약국,약국,서울특별시 금천구 디지털로9길 46 이앤씨드림타워7차 201-1호 (가산동),126.8871009,37.48005899
디딤온누리약국,약국,서울특별시 광진구 천호대로 653 1층 (중곡동),127.0896556,37.55285096
디엠씨4번출구약국,약국,"서울특별시 은평구 수색로 175 1층 003호 (증산동, 6호선 디지털미디어시티역)",126.9019293,37.57716183
디오빌약국,약국,"서울특별시 영등포구 당산로 222 (당산동5가,당산디오빌 206호)",126.9022915,37.53324561
디큐브약국,약국,"서울특별시 구로구 경인로 662 (신도림동, 디큐브시티 타워동 지하1층)",126.8892779,37.50882112
따뜻한약국,약국,서울특별시 종로구 종로 19 르메이에르종로타운1 304-1호 (종로1가),126.9799233,37.57084432
딸기약국,약국,서울특별시 노원구 화랑로51길 78 (공릉동),127.0877946,37.62576453
뚝도약국,약국,서울특별시 광진구 뚝섬로 595 1층 (자양동),127.0762009,37.53321016
뚝섬스타약국,약국,서울특별시 성동구 아차산로 42 지하1층 (성수동1가),127.0490944,37.54642619
라라약국,약국,서울특별시 강동구 성내로 69 케이씨엘빌딩 2관 1층 (성내동),127.127833,37.52790058
라라약국,약국,"서울특별시 노원구 동일로203가길 29 271호, 272호 (중계동, 중계브라운스톤)",127.0642845,37.63987723
라라약국,약국,서울특별시 강남구 테헤란로 125 지하1층 (역삼동),127.031675,37.49960058
라라약국,약국,서울특별시 구로구 고척로 203 (고척동),126.8558332,37.50528142
라라온누리약국,약국,서울특별시 강북구 도봉로 295 1층 (수유동),127.0229244,37.63493005
라미약국,약국,서울특별시 송파구 올림픽로8길 20 잠실아이파크 1층 A115호 (잠실동),127.0800347,37.51005231
라온365온누리약국,약국,서울특별시 강서구 화곡로 166 1층 (화곡동),126.8400807,37.54130696
라온약국,약국,"서울특별시 강남구 강남대로 318 1층 (역삼동, TOWER837)",127.0311814,37.49157094
라온약국,약국,"서울특별시 강동구 성안로 155 1층 106호 (천호동, 강동역두산위브센티움)",127.1347605,37.53723773
라이프약국,약국,서울특별시 강남구 삼성로149길 32 102호 (청담동),127.0449428,37.5232297
라이프약국,약국,서울특별시 마포구 신촌로 190 1층 (염리동),126.9467069,37.55660761
라임약국,약국,"서울특별시 중구 퇴계로 447 218-1호 (황학동, 황학 아크로타워)",127.0217222,37.56604228
라임약국,약국,"서울특별시 강서구 강서로13길 3 (화곡동, 동진빌딩)",126.846047,37.53229406
라임약국,약국,서울특별시 관악구 난곡로 215 (신림동),126.9175556,37.4737413
라임약국,약국,"서울특별시 마포구 신촌로 170 2층 상가 311호 (대흥동, 이대역푸르지오시티)",126.9443708,37.55634986
라임약국,약국,서울특별시 서초구 서초중앙로 229 1층 (반포동),127.0113681,37.50211649
라임약국,약국,서울특별시 동작구 여의대방로 142 (대방동),126.9206841,37.49973594
라임약국,약국,서울특별시 송파구 마천로 25 1층 (방이동),127.1239088,37.50968638
라임약국,약국,"서울특별시 노원구 노해로 485 101호 (상계동, 금정빌딩)",127.0619224,37.65487467
라임약국,약국,서울특별시 광진구 아차산로 375 크레신타워3차 1층 107호 (구의동),127.084369,37.53708131
라임약국,약국,서울특별시 금천구 디지털로9길 56 코오롱테크노밸리 109호 (가산동),126.8868718,37.4804014
라파약국,약국,서울특별시 동작구 상도로 348 평강빌딩 1층 (상도동),126.9524121,37.4972418
라파온누리약국,약국,서울특별시 도봉구 우이천로4길 42 1층 (창동),127.0416746,37.63403319
락희온누리약국,약국,서울특별시 송파구 송파대로 381 1층 (석촌동),127.1101703,37.50141008
래미안나나약국,약국,"서울특별시 구로구 디지털로31길 86 (구로동, 삼성래미안아파트)",126.891399,37.48665877
래미안스타약국,약국,"서울특별시 용산구 한강대로 95 지하2층 RB208호 (한강로2가, 래미안용산)",126.9666538,37.52881723
래미안약국,약국,"서울특별시 성북구 숭인로 50 상가동 2302호 (길음동, 래미안길음센터피스)",127.0285607,37.6096036
래미안약국,약국,서울특별시 동대문구 전농로3길 78-1 1층 (답십리동),127.0561184,37.57128159
래미안온누리약국,약국,"서울특별시 영등포구 당산로 214 (당산동5가,삼성래미안4차아파트 상가 109-1)",126.9047467,37.53176177
럭키약국,약국,"서울특별시 영등포구 여의대로 128 (여의도동, LG트윈타워)",126.9292415,37.52792685
레몬약국,약국,"서울특별시 도봉구 시루봉로 105 1층 111호 (방학동, 신동아상가)",127.0270336,37.6601795
레몬약국,약국,"서울특별시 서대문구 통일로 510 상가동 지2층 107호 (홍은동, 북한산 더샵)",126.9411671,37.59456867
레몬약국,약국,"서울특별시 광진구 아차산로 478 4층 (구의동, 그레이스빌딩)",127.0950324,37.54031583
레스큐약국,약국,서울특별시 양천구 목동서로 49 (목동),126.8805039,37.53707447
레아약국,약국,"서울특별시 금천구 가산디지털1로 131 117-1호 (가산동, BYC하이시티)",126.8822156,37.47704772
레이첼약국,약국,서울특별시 강남구 강남대로 470 808타워 5층 502호 (역삼동),127.0250549,37.50434792
레이크이화약국,약국,서울특별시 송파구 석촌호수로 135 레이크팰리스 A동 122호 (잠실동),127.0923857,37.50757178
렉슬약국,약국,"서울특별시 강남구 선릉로 225 B103호 (도곡동, 도곡렉슬상가)",127.0527204,37.49536571
로데오약국,약국,"서울특별시 강남구 선릉로 823 1층 (신사동, 한양타운)",127.0393424,37.52563597
로데오약국,약국,서울특별시 송파구 동남로3길 3 (가락동),127.1223565,37.49002832
로데오약국,약국,"서울특별시 양천구 신정중앙로 103 1층 (신정동, 담우빌딩)",126.8633748,37.52650637
로데오약국,약국,서울특별시 중랑구 면목로 330 (면목동),127.0887052,37.58131338
로뎀약국,약국,서울특별시 관악구 난곡로 349 1층 102호 (신림동),126.9136536,37.48508361
로얄약국,약국,서울특별시 중랑구 망우로 247 로얄스포츠센터 1층 (중화동),127.0795765,37.59532078
로얄약국,약국,서울특별시 영등포구 국회대로37길 25 (당산동4가),126.9005747,37.52900282
루비약국,약국,서울특별시 강남구 논현로 823 101호 (신사동),127.0279425,37.52191342
루터약국,약국,서울특별시 송파구 올림픽로35다길 42 한국루터회관 1층 (신천동),127.1030684,37.51525276
르씨엘약국,약국,서울특별시 강남구 학동로 215 101호 (논현동),127.0325682,37.5148742
르호봇약국,약국,"서울특별시 마포구 서강로 133 4층 (노고산동, 병우빌딩)",126.9352657,37.5544104
리더스약국,약국,서울특별시 금천구 벚꽃로 286 삼성리더스타워 1층 110-1호 (가산동),126.8841214,37.48039386
리드팜힘찬약국,약국,서울특별시 관악구 은천로 109 1층 (봉천동),126.9474808,37.48700087
리본약국,약국,서울특별시 강남구 도산대로16길 6 1층 일부호 (논현동),127.0244149,37.51750183
리센츠약국,약국,서울특별시 송파구 올림픽로 145 리센츠 3층 3A36호 (잠실동),127.0870421,37.51198105
리엔약국,약국,"서울특별시 강동구 상일로 74 상가2동 2층 203호 (상일동, 고덕리엔파크3단지아파트)",127.176167,37.55327315
리오약국,약국,"서울특별시 송파구 송파대로 345 1A동 2009호 (가락동, 헬리오시티)",127.1077046,37.49925109
마곡나루약국,약국,서울특별시 강서구 마곡서로 157 스프링파크타워 2층 208-2호 (마곡동),126.8246149,37.56817532
마곡메디칼약국,약국,"서울특별시 강서구 마곡중앙5로 81 107, 108호 (마곡동, 에스비타운)",126.8185976,37.56711772
마곡새봄약국,약국,서울특별시 강서구 강서로 463 새싹타워 1층 (마곡동),126.8404456,37.56694553
마곡소망약국,약국,"서울특별시 강서구 마곡중앙5로 6 2층 233호 (마곡동, 마곡나루역보타닉푸르지오시티)",126.8269556,37.56729068
마곡스타약국,약국,서울특별시 강서구 공항대로 168 1층 106-1호 (마곡동),126.8261368,37.55927426
마곡열린약국,약국,"서울특별시 강서구 방화대로 294 마곡더블유타워 114, 115호 (마곡동)",126.817051,37.56699494
마곡정문약국,약국,서울특별시 강서구 수명로 76 서울메디스테이트빌딩 102호 (내발산동),126.8262704,37.552764
마곡프라자약국,약국,서울특별시 강서구 마곡서1로 115-1 마곡헤리움1차 105~106호 (마곡동),126.8185709,37.56670745
마곡하나약국,약국,"서울특별시 강서구 강서로 385 106호 (마곡동, 우성에스비타워)",126.8383038,37.56009236
마곡하늘약국,약국,서울특별시 강서구 마곡중앙5로 6 마곡나루역보타닉푸르지오시티 227호 (마곡동),126.8269556,37.56729068
마더스약국,약국,서울특별시 관악구 난곡로 226 (신림동),126.9172782,37.47451276
마들소망약국,약국,"서울특별시 노원구 동일로 1530 105호 (상계동, 다모아빌딩)",127.0580224,37.66506432
마들소아약국,약국,서울특별시 노원구 동일로 1538 12단지 종합상가 2층 201호 (상계동),127.0579477,37.66583018
마들하나로약국,약국,서울특별시 노원구 동일로 1529 303호 (상계동),127.0573122,37.66509212
마들한중약국,약국,서울특별시 노원구 동일로 1529 합동빌딩 203호 마들한중약국 (상계동),127.0573122,37.66509212
마래푸약국,약국,서울특별시 마포구 신촌로34길 37 1층 (아현동),126.9550433,37.55563904
마리약국,약국,"서울특별시 마포구 마포대로 109 2층 (공덕동, 롯데시티호텔)",126.9508862,37.54511799
마리약국,약국,"서울특별시 강남구 논현로 819 1층 (신사동, 명광빌딩)",127.0278743,37.52163039
마미약국,약국,서울특별시 금천구 금하로 720 에벤에셀프라자 2층 206호 (시흥동),126.909483,37.4504438
마음약국,약국,서울특별시 관악구 남현길 7 한일프라자 1층 (남현동),126.9776976,37.47606737
마음약국,약국,서울특별시 노원구 동일로 1417 1층 (상계동),127.0599799,37.65506799
마음약국,약국,서울특별시 영등포구 선유로 59 (문래동6가),126.8890251,37.51927783
마이팜약국,약국,서울특별시 종로구 통일로16길 2 (무악동),126.9573033,37.57545437
마장백화점약국,약국,서울특별시 동대문구 고산자로 410 1층 (용두동),127.0385458,37.57615702
마천서울약국,약국,서울특별시 송파구 거마로 58 (마천동),127.1468602,37.4980023
마천푸른솔약국,약국,서울특별시 송파구 거마로 60 1층 (마천동),127.1469307,37.49819856
마천행복한약국,약국,서울특별시 송파구 마천로51길 2 (마천동),127.1505181,37.49551523
마트약국,약국,"서울특별시 중랑구 동일로 932 301호 (묵동, 묵동자이아파트)",127.0775574,37.61383962
마트온누리약국,약국,"서울특별시 양천구 오목로 299 지하101호 (목동, 목동트라팰리스 웨스턴에비뉴)",126.8702991,37.52556211
마포보건약국,약국,서울특별시 마포구 월드컵로 204 이안상암 105호 (성산동),126.9021317,37.56539925
마포웰츠약국,약국,"서울특별시 마포구 백범로 202 201호 (신공덕동, 마포KCC웰츠타워)",126.9524685,37.54284835
만남온누리약국,약국,서울특별시 강북구 삼양로 675 (우이동),127.0123097,37.66297677
만약국,약국,서울특별시 강남구 도산대로53길 13 1층 (신사동),127.0382699,37.52405441
맑은샘약국,약국,서울특별시 동작구 장승배기로 110 (노량진동),126.9401538,37.50736749
맑은샘약국,약국,서울특별시 동대문구 천호대로83길 39 (장안동),127.0651542,37.56402222
맑은샘약국,약국,서울특별시 송파구 동남로 236 2층 (가락동),127.1335186,37.49753469
맑은샘약국,약국,"서울특별시 성동구 금호로 117 상가동 지2층 28-1호 (금호동2가, 금호자이1차)",127.0214358,37.55306052
맑은샘약국,약국,서울특별시 강동구 천중로 237 1층 (길동),127.1467234,37.54083331
맑은샘온누리약국,약국,서울특별시 성북구  보문로 157 (삼선동5가),127.0169124,37.58842792
맑은수약국,약국,서울특별시 구로구 개봉로 47 1층 (개봉동),126.8559036,37.4898485
맑은수약국,약국,서울특별시 영등포구 여의대방로 65 돈보스코청소년센터 2층 8호 (신길동),126.9133864,37.49682911
맑은약국,약국,"서울특별시 구로구 경인로40길 47 (개봉동, 개봉역)",126.8591024,37.49452138
맑은약국,약국,"서울특별시 영등포구 당산로 42 (문래동3가,삼성홈플러스빌딩 지하1층)",126.8958805,37.51823931
맑은약국,약국,"서울특별시 양천구 중앙로29길 61 상가동 108호 (신월동, 신정뉴타운롯데캐슬)",126.8469949,37.51907312
맑은약국,약국,"서울특별시 은평구 진관2로 57-7 253동 104호 (진관동, 은평뉴타운우물골)",126.9234804,37.634744
맑은약국,약국,서울특별시 강서구 양천로 600 1층 (등촌동),126.8646732,37.55547577
맑은온누리약국,약국,서울특별시 송파구 새말로 125 어은회관 107호 (문정동),127.1278877,37.48310645
맑은하늘약국,약국,서울특별시 강남구 개포로 265 개포동 메디시스빌딩 1층 101호 (개포동),127.0529975,37.48090676
맘스케어약국,약국,"서울특별시 마포구 마포대로 201 (아현동, 마포트라팰리스2차)",126.9554965,37.5521969
맘온누리약국,약국,"서울특별시 강서구 공항대로 168 117,118호 (마곡동)",126.8261368,37.55927426
맘이편한약국,약국,서울특별시 관악구 신림로 357 1층 (신림동),126.9291287,37.48618127
망원그랜드약국,약국,서울특별시 마포구 월드컵로 79 유용빌딩 1층 (망원동),126.909836,37.55593784
망원동약국,약국,서울특별시 마포구 망원로 69 1층 (망원동),126.9045709,37.55742449
망원우리약국,약국,서울특별시 마포구 망원로8길 55 구앤윤브릭하우스 1층 (망원동),126.906416,37.55497428
매봉약국,약국,서울특별시 강남구 남부순환로 2725 1층 (도곡동),127.0440178,37.48622536
매일약국,약국,서울특별시 강동구 양재대로 1335 (성내동),127.134903,37.52557795
매일약국,약국,서울특별시 강북구 도봉로 389 1층 (수유동),127.0291038,37.64184452
매일약국,약국,서울특별시 관악구 인헌길 39 법향빌 1층 (봉천동),126.9669201,37.47368021
매일여는약국,약국,서울특별시 양천구 목동동로 233-1 (목동),126.8691677,37.54143896
매일여는약국,약국,서울특별시 마포구 월드컵북로 396 누리꿈스퀘어 B1094호 (상암동),126.8903232,37.57944252
매일여는온누리약국,약국,"서울특별시 송파구 백제고분로 187 1층 103,104호 (잠실동, 파크인수)",127.0877814,37.50474464
맨하탄길약국,약국,서울특별시 영등포구 국제금융로6길 33 1층 127호 (여의도동),126.9269123,37.52079156
먹골온누리약국,약국,서울특별시 중랑구 공릉로 59 1층 (묵동),127.079103,37.61602297
메디슨약국,약국,"서울특별시 송파구 송이로 111 (가락동, 청석빌딩 1층)",127.1221503,37.49671127
메디슨약국,약국,"서울특별시 도봉구 해등로 255 101동 102호 (쌍문동, 신원상가에벤에셀)",127.0281915,37.65737423
메디신약국,약국,"서울특별시 구로구 목동남로 32 (고척동, 보광빌딩)",126.8636037,37.50797352
메디안약국,약국,"서울특별시 서초구 강남대로 455 3층 305호 (서초동, 강남태영데시앙루브)",127.0245439,37.5028598
메디약국,약국,서울특별시 도봉구 방학로 183 (방학동),127.0322854,37.66183411
메디약국,약국,서울특별시 동대문구 회기로 173 1층 (회기동),127.0555107,37.59052649
메디참사랑약국,약국,"서울특별시 강서구 양천로 431 지하1층 (가양동, 홈플러스가양점)",126.8499607,37.5642649
메디칼2층약국,약국,"서울특별시 도봉구 도봉로 484 2층 (창동, 청우빌딩)",127.0350641,37.64861016
메디칼갑산약국,약국,서울특별시 동대문구 망우로 123 1층 (휘경동),127.0665973,37.59171243
메디칼건강약국,약국,서울특별시 강서구 양천로 104 (방화동),126.8154015,37.57323509
메디칼미래약국,약국,"서울특별시 강남구 삼성로 38 306호 (개포동, 개포빌딩)",127.0668454,37.48868752
메디칼바른약국,약국,"서울특별시 구로구 공원로7길 40 1층 (구로동, 대영빌딩)",126.8869023,37.50149434
메디칼서울약국,약국,서울특별시 종로구 대학로9길 6 (명륜4가),127.001528,37.58182019
메디칼세영약국,약국,서울특별시 마포구 월드컵로 159 1층 (망원동),126.9046444,37.56178854
메디칼수정약국,약국,"서울특별시 동작구 보라매로 113 105호 (대방동, 코스모빌딩)",126.9278976,37.49946464
메디칼약국,약국,서울특별시 강서구 공항대로41길 65 1층 110호 (등촌동),126.84612,37.56079272
메디칼약국,약국,서울특별시 은평구 서오릉로2길 17-5 (녹번동),126.9284411,37.60253749
메디칼약국,약국,서울특별시 도봉구 도봉로 677 105호 (방학동),127.0423181,37.66492899
메디칼약국,약국,"서울특별시 서초구 방배로 115 1층 (방배동, 방배메디칼빌딩)",126.9954071,37.48439403
메디칼약국,약국,서울특별시 강동구 상암로 31 (암사동),127.1271342,37.55048067
메디칼약국,약국,서울특별시 마포구 월드컵로14길 5 1층 (서교동),126.9107023,37.55600526
메디칼약국,약국,"서울특별시 노원구 동일로 1550 206호 (상계동, 고려프라자)",127.0575487,37.66691028
메디칼약국,약국,서울특별시 성북구  아리랑로 3 (동소문동6가),127.016174,37.59302284
메디칼약국,약국,"서울특별시 관악구 은천로25길 69 1층 (봉천동, 삼성프라자)",126.9483557,37.48906799
메디칼약국,약국,서울특별시 광진구 광나루로 355 (군자동),127.0693459,37.5483867
메디칼약국,약국,서울특별시 성동구 고산자로 234 402호 (행당동),127.0352646,37.56052486
메디칼약국,약국,"서울특별시 종로구 경교장길 35 3136호 (평동, 경희궁자이 3단지)",126.9668521,37.56892022
메디칼우리약국,약국,서울특별시 동작구 보라매로 106 (신대방동),126.9283616,37.49870524
메디칼우리약국,약국,서울특별시 노원구 동일로 1044 1층 (공릉동),127.07405,37.62336429
메디칼으뜸약국,약국,서울특별시 양천구 신정이펜2로 12 이펜하우스타워 104호 (신정동),126.8328231,37.51260569
메디칼정성약국,약국,"서울특별시 강남구 밤고개로21길 8 1층 107호 (율현동, 세곡프라자)",127.107863,37.47354699
메디칼중앙약국,약국,서울특별시 양천구 오목로 312 (목동),126.8720131,37.52469134
메디칼청실약국,약국,"서울특별시 강남구 남부순환로 2917 112호, 113호 (대치동, 청실상가동)",127.0591653,37.493167
메디칼팜약국,약국,서울특별시 성북구 오패산로 49 3층 (하월곡동),127.0364366,37.60639682
메디칼푸른약국,약국,"서울특별시 영등포구 양평로 16 1층 105호 (당산동6가, 당산동 대정프라자)",126.9045015,37.53288722
메디칼하나약국,약국,서울특별시 중구 다산로 134 (신당동),127.0114198,37.55568299
메디칼하늘약국,약국,"서울특별시 강남구 남부순환로 2609 1층 (도곡동, 하늘빌딩)",127.0350968,37.48496357
메디칼허브약국,약국,"서울특별시 서초구 강남대로 615 1층 (잠원동, 금정빌딩)",127.0189102,37.51664352
메디칼희민약국,약국,서울특별시 강남구 영동대로86길 10 1층 (대치동),127.0649062,37.50780608
메디컬 성모약국,약국,서울특별시 마포구 월드컵로 73 1층 (망원동),126.9103588,37.55542434
메디컬바른약국,약국,"서울특별시 강동구 양재대로121길 7 거송빌딩 103,104호 (천호동)",127.1410806,37.54229569
메디컬수약국,약국,"서울특별시 동작구 서달로 150 207호, 208호 (흑석동, 해가든상가)",126.9621835,37.50662591
메디컬수약국,약국,서울특별시 중랑구 면목로 430 1층 (면목동),127.0872733,37.59026327
메디컬수약국,약국,서울특별시 영등포구 영등포로 81-1 메디컬수약국 (양평동1가),126.8907208,37.52235569
메디컬우리약국,약국,서울특별시 동대문구 휘경로 43 1층 (휘경동),127.0647674,37.59472413
메디컬제일약국,약국,"서울특별시 서초구 방배로 225 1층 (방배동, 성은빌딩)",126.9897796,37.4931592
메디케어약국,약국,"서울특별시 서초구 신반포로 157 405호 (잠원동, 일동빌딩)",127.0014602,37.50551377
메디케어약국,약국,서울특별시 중구 서소문로 136 1층 (태평로2가),126.9760429,37.56354878
메디파워약국,약국,"서울특별시 광진구 뚝섬로 552 (자양동, 삼희빌딩)",127.0712711,37.53430338
메디팜 동양약국,약국,서울특별시 서초구 사임당로 157 릿타워 410호 (서초동),127.0268072,37.49246387
메디팜 보건약국,약국,서울특별시 서대문구 통일로 435 (홍제동),126.9450571,37.58774133
메디팜21세기약국,약국,서울특별시 강서구 화곡로 164 (화곡동),126.8398923,37.5412575
메디팜강일약국,약국,"서울특별시 강동구 아리수로93길 27 106호 (강일동, 강일타워)",127.1738149,37.56562189
메디팜건강약국,약국,서울특별시 은평구 수색로 270-1 (수색동),126.8945153,37.58289037
메디팜건강약국,약국,서울특별시 도봉구 도봉로 487 1층 (쌍문동),127.0346513,37.64914032
메디팜경약국,약국,서울특별시 은평구 응암로22길 15-1 (응암동),126.9199619,37.59372492
메디팜광주약국,약국,서울특별시 중구 퇴계로6길 5 (회현동1가),126.9783538,37.5580169
메디팜금빛약국,약국,서울특별시 양천구 목동동로 379 (목동),126.8787135,37.53560938
메디팜금성약국,약국,서울특별시 양천구 남부순환로40가길 15-1 (신월동),126.8251739,37.53358165
메디팜나은약국,약국,"서울특별시 용산구 한강대로 211 110호 (한강로1가, 대우월드마크용산)",126.9730778,37.53719709
메디팜늘봄약국,약국,서울특별시 중구 다산로 223 (신당동),127.0152202,37.56313821
메디팜대림약국,약국,"서울특별시 성동구 행당로 87 331호 (행당동, 대림리빙프라자)",127.0285445,37.55729284
메디팜대신M약국,약국,서울특별시 송파구 송이로 87 1층 (가락동),127.120793,37.49833838
메디팜대안약국,약국,서울특별시 금천구 시흥대로 352 (독산동),126.8979283,37.46482529
메디팜대야약국,약국,서울특별시 강서구 강서로 56 (화곡동),126.8463965,37.53277263
메디팜대원약국,약국,서울특별시 은평구 진흥로1길 2 (역촌동),126.9189506,37.60058599
메디팜더미소약국,약국,서울특별시 송파구 충민로2길 24 리더스프라자 104호 (장지동),127.1272857,37.47764679
메디팜덕인약국,약국,서울특별시 마포구 신촌로 232 1층 (아현동),126.9513879,37.55688066
메디팜동아약국,약국,서울특별시 동대문구 한천로 55 (답십리동),127.0618804,37.56690904
메디팜동진약국,약국,서울특별시 구로구 도림로 75 1층 (구로동),126.8917091,37.48999655
메디팜메트로약국,약국,서울특별시 서초구 효령로2길 4 (방배동),126.9865174,37.47632804
메디팜무지개약국,약국,서울특별시 강남구 논현로159길 10 1층 일부호 (신사동),127.0273372,37.52311323
메디팜문화약국,약국,서울특별시 강동구 구천면로 200 (천호동),127.1268022,37.54028079
메디팜미래로약국,약국,서울특별시 용산구 청파로47길 40 (청파동2가),126.9682732,37.54482576
메디팜미래로약국,약국,서울특별시 강동구 천호대로 1467 (상일동),127.1712053,37.54636064
메디팜미소약국,약국,"서울특별시 강북구 도봉로 34 1층 (미아동, 트레지오빌딩)",127.0307213,37.61206837
메디팜믿음약국,약국,서울특별시 성북구 돌곶이로 45 (석관동),127.0595668,37.60813937
메디팜백악관약국,약국,서울특별시 광진구 용마산로 4 1층 (중곡동),127.0887567,37.55404879
메디팜백약국,약국,서울특별시 성북구 오패산로 57 1층 (하월곡동),127.0362084,37.60732989
메디팜보문약국,약국,"서울특별시 강남구 삼성로 38 1층 113호 (개포동, 개포빌딩)",127.0668454,37.48868752
메디팜보배약국,약국,서울특별시 성동구 아차산로7길 19 (성수동2가),127.0546975,37.54686316
메디팜사랑약국,약국,서울특별시 강서구 화곡로 138 1층 (화곡동),126.8371163,37.54044093
메디팜사랑약국,약국,서울특별시 동대문구 망우로18길 6 1층 (휘경동),127.0623526,37.58962259
메디팜삼보약국,약국,서울특별시 은평구 연서로 332 (불광동),126.9288704,37.62482398
메디팜상록약국,약국,서울특별시 은평구 서오릉로 191 1층 (구산동),126.9121807,37.6133311
메디팜상암약국,약국,"서울특별시 마포구 상암산로1길 73 103호 (상암동, 월드프라자)",126.8832056,37.58016502
메디팜새경약국,약국,서울특별시 은평구 갈현로 87 (역촌동),126.9103571,37.60571471
메디팜샛별약국,약국,서울특별시 노원구 동일로 1547 동남빌딩 1층 102호 (상계동),127.0569307,37.66655644
메디팜서울약국,약국,"서울특별시 양천구 목동동로 59 104호 (신정동, 로얄프라자)",126.8616164,37.51504858
메디팜석촌약국,약국,"서울특별시 송파구 삼학사로 81 1층 (삼전동, 서울빌딩)",127.0969086,37.50442911
메디팜성화약국,약국,서울특별시 양천구 남부순환로40길 63 (신월동),126.8264807,37.53293221
메디팜승윤약국,약국,서울특별시 은평구 가좌로 325 (신사동),126.9089651,37.5962235
메디팜신마포약국,약국,"서울특별시 마포구 창전로 45 103동 108호 (창전동, 서강한화오벨리스크 단지내 상가)",126.9320029,37.54686291
메디팜신웅약국,약국,서울특별시 중구 퇴계로87길 15-8 (황학동),127.020781,37.56625362
메디팜신정교약국,약국,"서울특별시 양천구 신목로 36 102호 (신정동, 대보빌딩)",126.8737843,37.51884756
메디팜압구정약국,약국,서울특별시 강남구 논현로160길 13 1층 101호 (신사동),127.0291091,37.5227677
메디팜양의약국,약국,"서울특별시 송파구 올림픽로 212 2층 220호 (잠실동, 갤러리아팰리스)",127.094435,37.51150425
메디팜엔비약국,약국,서울특별시 동작구 노량진로 152 . 1층 (노량진동),126.9427336,37.51345031
메디팜우리약국,약국,"서울특별시 송파구 올림픽로 119 1층 A12호 (잠실동, 파인애플상가 1층 A12호)",127.0841859,37.5120837
메디팜우주약국,약국,"서울특별시 송파구 올림픽로35길 10 B동 212-호 (신천동, 파크리오)",127.1132653,37.52031509
메디팜유일약국,약국,서울특별시 서초구 효령로46길 14 (서초동),127.0087998,37.4828145
메디팜은강약국,약국,"서울특별시 서초구 잠원로14길 29 104호 (잠원동, 설악복지센타)",127.0154489,37.51785414
메디팜은아약국,약국,서울특별시 노원구 덕릉로126길 11 (상계동),127.0818375,37.67059188
메디팜인정약국,약국,"서울특별시 강서구 양천로 72 202호 (방화동, 해성빌딩)",126.8117758,37.57320951
메디팜일진약국,약국,서울특별시 성동구 용답중앙길 80-1 (용답동),127.054123,37.56265834
메디팜자연약국,약국,서울특별시 강동구 양재대로 1477 1층 (길동),127.139681,37.53777113
메디팜장약국,약국,서울특별시 양천구 목동남로4길 32 (신정동),126.8660694,37.5088262
메디팜정다운약국,약국,"서울특별시 강서구 마곡중앙5로 87 107호 (마곡동, 우성르보아투)",126.817774,37.5671738
메디팜정연약국,약국,"서울특별시 강남구 강남대로 256 103호 (도곡동, 대우양재디오빌)",127.0335377,37.4864864
메디팜정원약국,약국,서울특별시 강동구 천호대로 1200 (둔촌동),127.1446661,37.5345582
메디팜제일약국,약국,서울특별시 구로구 오리로 1270 (궁동),126.8307793,37.4950133
메디팜최약국,약국,서울특별시 용산구 청파로 324 1층 (청파동1가),126.9702475,37.54857749
메디팜큰사랑약국,약국,서울특별시 도봉구 도봉로 488 (창동),127.0352693,37.64899962
메디팜푸른약국,약국,서울특별시 송파구 동남로 189 (가락동),127.129854,37.49466144
메디팜푸른약국,약국,서울특별시 성동구 무학로 33 104호 (하왕십리동),127.0288919,37.56729695
메디팜푸른약국,약국,서울특별시 강서구 강서로 293-1 (내발산동),126.8360079,37.55206762
메디팜하나약국,약국,서울특별시 송파구 송파대로 365 (석촌동),127.1110877,37.50040249
메디팜한마음약국,약국,서울특별시 강북구 오현로32길 3 (번동),127.0396958,37.62870641
메디팜한솔약국,약국,"서울특별시 성동구 행당로 84 132호 (행당동, 행당한진타운종합상가)",127.0287465,37.55656914
메디팜한진약국,약국,서울특별시 용산구  이촌로18길 5 (이촌동),126.9554903,37.52628865
메디팜현대약국,약국,서울특별시 마포구 신촌로 72 1층 (노고산동),126.933841,37.55593821
메디팜호정약국,약국,서울특별시 성동구 성수일로 39 (성수동1가),127.0492561,37.5442376
메디피아약국,약국,"서울특별시 강남구 강남대로 242 1층 (도곡동, 크리스탈빌딩)",127.0340819,37.48537204
메디홈약국,약국,"서울특별시 동작구 상도로 174 (상도동, 동서남북빌딩)",126.9384164,37.50424957
메디홈약국,약국,"서울특별시 중구 소공로 58 화-2호 (충무로1가, 회현지하상가)",126.9818474,37.56066647
메딕스약국,약국,서울특별시 서초구 고무래로 32 반포트라이엄프메딕스빌딩 107호 (반포동),127.0121553,37.50242287
메타팜약국,약국,서울특별시 강남구 남부순환로 2941 101호 (대치동),127.0619333,37.49426118
메트로약국,약국,"서울특별시 강남구 언주로30길 13 B동 102호 (도곡동, 대림아크로빌)",127.0506744,37.48814255
멜론약국,약국,서울특별시 성북구 보국문로 53 (정릉동),127.0095228,37.60928382
면목그랜드약국,약국,"서울특별시 중랑구 사가정로 404 1층,지층 (면목동)",127.087366,37.5902764
면목백화점약국,약국,서울특별시 중랑구 용마산로 328 (면목동),127.0935745,37.58106092
면목약국,약국,서울특별시 중랑구 겸재로 194 (면목동),127.0890769,37.58851193
면목종로약국,약국,서울특별시 중랑구 겸재로 121 (면목동),127.0813177,37.58718564
명동명약국,약국,서울특별시 중구 남대문로7길 11 태양빌딩 1층 (소공동),126.981247,37.56368443
명동모모약국,약국,서울특별시 중구 남대문로 68 5층 (명동2가),126.9822629,37.5631087
명동사랑약국,약국,"서울특별시 중구 퇴계로 109 (충무로1가,1층 102호)",126.9838637,37.56095247
명동약국,약국,서울특별시 중구 퇴계로 123 8층 (충무로2가),126.9853639,37.56126431
명동온누리약국,약국,"서울특별시 성동구 고산자로 164 107호 (행당동, 행당한신아파트)",127.0349907,37.55584812
명동중앙약국,약국,서울특별시 중구 명동8나길 49 (충무로1가),126.9821665,37.56108475
명동천사약국,약국,서울특별시 중구 남대문로 68 3층 (명동2가),126.9822629,37.5631087
명동플러스약국,약국,"서울특별시 중구 명동9길 23 한양빌딩 1, 2층 (을지로2가)",126.9844925,37.56489636
명동하이약국,약국,"서울특별시 중구 명동7길 14 1, 2, 3층 (명동1가)",126.9844693,37.56437348
명륜시장약국,약국,서울특별시 종로구 성균관로 56-1 (명륜1가),126.9967925,37.58769832
명문당약국,약국,"서울특별시 금천구 시흥대로 240 (시흥동, 장안의원)",126.9007007,37.45528281
명문약국,약국,서울특별시 서대문구 연희로36길 10 1층 (연희동),126.9367031,37.57861956
명문약국,약국,서울특별시 구로구 디지털로32길 97-39 (구로동),126.9013305,37.48424664
명문약국,약국,"서울특별시 강서구 허준로 175 101호 (가양동, 가양6단지아파트상가)",126.8599327,37.56236581
명문약국,약국,"서울특별시 강남구 양재대로55길 6 101호 (일원동, 수서1단지아파트상가)",127.0883147,37.49132181
명문약국,약국,서울특별시 송파구 마천로41길 20 1층 (마천동),127.1496068,37.49701673
명문약국,약국,서울특별시 종로구 통일로 254 1층 (무악동),126.9577041,37.57494461
명문온누리약국,약국,서울특별시 동대문구 사가정로 225 1층 (장안동),127.0701355,37.578933
명보약국,약국,서울특별시 금천구 시흥대로 92 (시흥동),126.9040651,37.44227731
명산약국,약국,"서울특별시 도봉구 노해로 384 2층 203-1호 (창동, 동아상가)",127.0510043,37.65194592
명생약국,약국,서울특별시 송파구 백제고분로41길 31 (송파동),127.1064883,37.5084274
명성그린약국,약국,"서울특별시 강동구 구천면로 424 115호 (명일동, 명일메카타운)",127.1455796,37.55035054
명성약국,약국,서울특별시 중구 명동길 73 YWCA연합회 1층 (명동1가),126.986234,37.56441046
명성약국,약국,서울특별시 영등포구 도림로 152-4 (대림동),126.8988471,37.49358217
명성약국,약국,서울특별시 광진구 광나루로 538 (구의동),127.0892258,37.54464147
명성약국,약국,"서울특별시 마포구 월드컵로 87 103호 (망원동, 마포로얄프라자)",126.9092409,37.5564745
명성약국,약국,서울특별시 은평구 통일로 805 (대조동),126.9240752,37.61585941
명성프라자약국,약국,서울특별시 관악구 관악로 231-1 (봉천동),126.9555586,37.48533481
명소약국,약국,서울특별시 성북구 돌곶이로 28 1층 (석관동),127.0611253,37.60705338
명수대약국,약국,서울특별시 동작구 서달로 151 (흑석동),126.9615381,37.50697567
명수약국,약국,서울특별시 금천구 시흥대로138길 13 (독산동),126.8993906,37.47285825
명신당약국,약국,서울특별시 서대문구 홍제천로 14 (연희동),126.9189443,37.56870658
명신약국,약국,서울특별시 성북구 종암로 180 (하월곡동),127.0316696,37.60584837
명심약국,약국,서울특별시 강남구 개포로 207 (개포동),127.0453007,37.47857549
명약국,약국,서울특별시 송파구 거마로 62 효명빌딩 1층 (마천동),127.147018,37.49842073
명약국,약국,서울특별시 중구 남대문로9길 51 효덕빌딩 5층 (을지로1가),126.9795013,37.56681127
명약국,약국,"서울특별시 광진구 아차산로 532 101호 (광장동, 진넥스빌딩)",127.1004889,37.54233885
명약국,약국,서울특별시 서대문구 신촌로 109 신촌르메이에르타운5 1층 111-2호 (창천동),126.9377988,37.55583094
명약국,약국,서울특별시 동대문구 망우로18나길 3 1층 (휘경동),127.0605657,37.58734672
명약국,약국,서울특별시 금천구 시흥대로 473 (독산동),126.8980908,37.4759377
명옥약국,약국,서울특별시 강남구 압구정로 212 (신사동),127.030458,37.52784084
명음약국,약국,"서울특별시 서대문구 신촌로35길 10 117호 (북아현동, e편한세상신촌 4단지)",126.9558993,37.55799893
명인약국,약국,서울특별시 동작구 여의대방로 126 (신대방동),126.9205557,37.49814109
명일로약국,약국,서울특별시 강동구 명일로 270 1층 (길동),127.147755,37.54260305
명일마트종로약국,약국,"서울특별시 강동구 고덕로 276 지하1층 (명일동, 이마트명일점)",127.1556133,37.55470673
명일보룡약국,약국,서울특별시 강동구 동남로73길 26 (명일동),127.1547835,37.55329928
명일약국,약국,서울특별시 강동구 양재대로 1626 (명일동),127.1442869,37.55064518
명일정원약국,약국,"서울특별시 강동구 구천면로 428 204호 (명일동, 센트로빌)",127.1461593,37.55015731
명진당약국,약국,서울특별시 용산구 청파로 387 (서계동),126.968795,37.55424603
명진약국,약국,서울특별시 용산구 신흥로36길 1 (후암동),126.981751,37.54659374
명진팜약국,약국,서울특별시 강서구 마곡중앙로 161-17 보타닉파크타워Ⅰ 110호 (마곡동),126.8259614,37.56805908
명치약국,약국,서울특별시 마포구 임정로15길 13 1층 (신공덕동),126.9572566,37.54336052
모건약국,약국,서울특별시 강남구 테헤란로 120 상경빌딩 1층 (역삼동),127.0308554,37.49858673
모닝온누리약국,약국,"서울특별시 서초구 강남대로 341 지하1층 (서초동, 삼원빌딩)",127.0293623,37.49325592
모당약국,약국,서울특별시 성북구 아리랑로5길 1 (동소문동7가),127.015142,37.59637611
모던온누리약국,약국,"서울특별시 송파구 송파대로 345 상가1A동 3층 3053호 (가락동, 헬리오시티)",127.1077046,37.49925109
모두온누리약국,약국,서울특별시 관악구 남부순환로 1869 1층 (봉천동),126.9575679,37.4798345
모드니온누리약국,약국,서울특별시 중구 서소문로 116 지하1층 (서소문동),126.9740097,37.56273538
모래내백화점약국,약국,서울특별시 서대문구 수색로 38 1층 (남가좌동),126.9144791,37.56980561
모래내약국,약국,서울특별시 서대문구 수색로 34 1층 (남가좌동),126.9149429,37.56959492
모범약국,약국,서울특별시 서대문구 증가로 129 (남가좌동),126.9232365,37.57727012
모범약국,약국,서울특별시 송파구 백제고분로 258 (삼전동),127.0950448,37.50229661
모스팜약국,약국,서울특별시 구로구 새말로 97 신도림테크노마트 지하1층 BS026호 (구로동),126.8902272,37.50704369
모아약국,약국,"서울특별시 서초구 성촌길 34 지하1층 (우면동, (주)삼성전자서울R&D캠퍼스)",127.0242694,37.46620035
모아약국,약국,서울특별시 양천구 남부순환로59길 9 (신월동),126.8322578,37.53230812
모주현약국,약국,서울특별시 강동구 고덕로 390 고덕아르테온아파트(상가1동) 2층 204호 (상일동),127.043771,37.5244016
목동건강약국,약국,서울특별시 양천구 목동로27길 6 1층 (신정동),126.8632632,37.52865431
목동벧엘약국,약국,서울특별시 양천구 목동동로 430 (목동),126.8843938,37.53520649
목동복지약국,약국,서울특별시 양천구 목동동로 430 (목동),126.8843938,37.53520649
목동세계로약국,약국,"서울특별시 양천구 목동동로12길 45 (목동, 삼익아파트 상가)",126.8763644,37.52258378
목동세명약국,약국,서울특별시 양천구 목동중앙북로 27 (목동),126.8666219,37.5484581
목동센트럴약국,약국,서울특별시 양천구 신월로 170 1층 (신월동),126.8424743,37.51815804
목동약국,약국,"서울특별시 양천구 오목로 232 112호 (신정동, 보성상가)",126.8632064,37.52576402
목동온누리약국,약국,"서울특별시 양천구 목동동로 55 101,102호 (신정동, 밀레니엄프라자)",126.8613988,37.51552061
목동정문약국,약국,서울특별시 양천구 목동동로 435 (목동),126.8848697,37.53738689
목동조은약국,약국,"서울특별시 양천구 목동서로 70 관리동 상가109호 (목동, 목동신시가지아파트2단지)",126.8764372,37.53644465
목동즐거운약국,약국,서울특별시 양천구 목동로 210 (목동),126.8644475,37.52738303
목동파라곤약국,약국,서울특별시 양천구 목동서로 155 (목동),126.875421,37.52994507
목동한미약국,약국,서울특별시 양천구 목동남로4길 2 118~123호 (신정동),126.8645345,37.50828616
목동행복한약국,약국,서울특별시 양천구 목동동로 309 지1층 (목동),126.8760092,37.52914373
목원약국,약국,서울특별시 노원구 상계로37길 29 1층 (상계동),127.0799871,37.67145627
목화약국,약국,서울특별시 강서구 등촌로5길 5 (화곡동),126.8632715,37.53325456
목화약국,약국,서울특별시 강남구 양재대로55길 11 1층 (일원동),127.0876687,37.49153372
몸사랑한약국,약국,"서울특별시 송파구 석촌호수로 61 지층 B104호 (잠실동, 트리지움상가)",127.0862112,37.51070164
무궁화약국,약국,서울특별시 노원구 한글비석로 77 한성여객(주) (하계동),127.0704639,37.63755641
무궁화약국,약국,서울특별시 중랑구 면목로 303 (면목동),127.0871333,37.57947707
무릉약국,약국,서울특별시 중구 창경궁로1길 38 (충무로4가),126.9963377,37.56251944
무림약국,약국,서울특별시 금천구 시흥대로 406 (독산동),126.898443,37.46965469
무악메디칼약국,약국,서울특별시 서대문구 연희로 407 연희8빌딩 1층 (홍은동),126.9404851,37.59128672
무지개약국,약국,서울특별시 영등포구 선유로 76 동국메뜨리앙 3층 305호 (문래동3가),126.8899065,37.52065009
무지개약국,약국,서울특별시 광진구 뚝섬로 498-1 (자양동),127.06556,37.53592063
무지개약국,약국,"서울특별시 강동구 진황도로61길 42 104호 (둔촌동, 둔촌동주상복합)",127.1454589,37.52847877
무지개약국,약국,서울특별시 양천구 등촌로 214 (목동),126.8636992,37.54860679
무지개온누리약국,약국,서울특별시 노원구 화랑로 325 (월계동),127.0640447,37.61495546
무지개온누리약국,약국,서울특별시 도봉구 도봉로 471 (쌍문동),127.0338786,37.64784602
문경한약국,약국,서울특별시 동대문구 약령중앙로 13 1층 (제기동),127.0367927,37.57944908
문래건강한약국,약국,"서울특별시 영등포구 영등포로 118 성지빌딩 1층 1,2호 (당산동2가)",126.89463,37.52130877
문래스타약국,약국,서울특별시 영등포구 선유로9길 10 SK V1 Center 1층 105호 (문래동6가),126.8871531,37.51786761
문박사약국,약국,서울특별시 관악구 양녕로 34 (봉천동),126.9470016,37.48507423
문성당약국,약국,서울특별시 금천구 독산로64길 39 (독산동),126.9045436,37.46587284
문약국,약국,"서울특별시 용산구 독서당로 67 205호 (한남동, 서울빌딩)",127.0081477,37.53383868
문정건강약국,약국,서울특별시 송파구 송파대로 98 선도빌딩 1층 (문정동),127.1261854,37.47970528
문정약국,약국,서울특별시 송파구 동남로4길 25 (문정동),127.1249793,37.48793993
문정약국,약국,서울특별시 관악구 양녕로 63 (봉천동),126.9464104,37.48759184
문정온누리약국,약국,서울특별시 송파구 송파대로 167 문정역테라타워 지하1층 G132호 (문정동),127.1209336,37.48466065
문정우리들약국,약국,서울특별시 송파구 법원로 114 엠스테이트 C-218호 (문정동),127.1210093,37.48605576
문정이화약국,약국,서울특별시 송파구 법원로 114 엠스테이트 C동 214호 (문정동),127.1210093,37.48605576
문화약국,약국,서울특별시 용산구  장문로 114-1 (보광동),127.0022603,37.52666069
문화약국,약국,서울특별시 양천구 지양로3길 10-1 (신월동),126.8357572,37.51859583
미그린약국,약국,서울특별시 양천구 신월로 341 4층 (신정동),126.8588375,37.52201781
미네랄약국,약국,"서울특별시 강남구 학동로 342 308-1호 (논현동, SK허브빌딩)",127.0408412,37.5167556
미도파약국,약국,서울특별시 은평구 응암로 264 서울빌딩 1층 (응암동),126.9188757,37.59529025
미동약국,약국,서울특별시 강서구 월정로30길 52 (화곡동),126.8388095,37.53464341
미라클약국,약국,"서울특별시 용산구 한강대로 259 109호 (갈월동, 고려에이트리움)",126.972413,37.54158478
미라클약국,약국,"서울특별시 양천구 목동동로 379 113호 (목동, 광장상가)",126.8787135,37.53560938
미래로약국,약국,서울특별시 동대문구 이문로 114 한국외국어대학교 글로벌홀 1층 (이문동),127.060684,37.59673702
미래아산약국,약국,서울특별시 송파구 강동대로 63 1층 (풍납동),127.1146333,37.52717096
미래약국,약국,서울특별시 강서구 양천로14길 23 효성빌딩 1층 101호 (방화동),126.8102433,37.57200286
미래약국,약국,서울특별시 서초구 고무래로 90-7 서초쇼핑 (서초동),127.0174513,37.49992299
미래약국,약국,"서울특별시 노원구 상계로5길 32 금호프라자 110호, 111호 (상계동)",127.0628411,37.65711339
미래약국,약국,서울특별시 중랑구 겸재로 113 (면목동),127.0803466,37.58690945
미래약국,약국,서울특별시 성북구 고려대로 85 (안암동5가),127.0288667,37.58647183
미래약국,약국,서울특별시 광진구 군자로 85 (군자동),127.0708917,37.55077532
미래약국,약국,서울특별시 송파구 오금로 518 3층 (거여동),127.1463467,37.49278638
미래약국,약국,"서울특별시 구로구 구로동로 145-6 B동 1,2층 (구로동)",126.8925979,37.49004351
미래약국,약국,서울특별시 영등포구 여의대방로65길 12 (여의도동),126.930031,37.51962705
미래팜약국,약국,서울특별시 금천구 독산로 290 (독산동),126.9033952,37.47262057
미래팜약국,약국,"서울특별시 노원구 노해로 492 102호, 103호 (상계동, 프린스빌딩)",127.0626788,37.65445728
미래팜약국,약국,"서울특별시 마포구 양화로 166 지하1층 (동교동, 미래프라자빌딩)",126.9241654,37.55674085
미르약국,약국,"서울특별시 송파구 토성로 65 2층 202-2호 (풍납동, 태양상가 202-2호)",127.1173463,37.52890814
미르약국,약국,"서울특별시 은평구 백련산로 84 211호 (응암동, 백련산 힐스테이트 2차(211동상가))",126.9236383,37.59300383
미리암약국,약국,서울특별시 강동구 동남로81길 100 (고덕동),127.1517087,37.5589868
미문약국,약국,서울특별시 구로구 구로동로 77 동해빌딩 지하1층 (구로동),126.8855799,37.48554936
미서약국,약국,"서울특별시 영등포구 국제금융로7길 15 1층 2012호 (여의도동, 여의상가)",126.9319818,37.52316182
미성송파약국,약국,서울특별시 송파구 송파대로 374 (송파동),127.1112165,37.50132681
미성약국,약국,"서울특별시 강남구 압구정로 113-22 101호 (압구정동, 미성상가)",127.0196441,37.52474068
미성온누리약국,약국,"서울특별시 영등포구 도신로29길 28 (영등포동, 영등포푸르지오2단지아파트)",126.9023244,37.51175199
미션약국,약국,"서울특별시 노원구 동일로 1533 102호 (상계동, 백산빌딩)",127.0572482,37.66536787
미소가득약국,약국,"서울특별시 동대문구 장안벚꽃로 107 상가1동 2층 215-1호 (장안동, 장안현대홈타운)",127.0734526,37.56835644
미소가득한약국,약국,"서울특별시 마포구 월드컵북로 396 115호 (상암동, 누리꿈스퀘어)",126.8903232,37.57944252
