No,개방자치단체코드,관리번호,인허가일자,영업상태코드,영업상태명,상세영업상태코드,상세영업상태명,전화번호,소재지우편번호,지번주소,도로명주소,도로명우편번호,사업장명,최종수정일자,데이터갱신구분,데이터갱신일자,좌표정보(X),좌표정보(Y),판매점영업면적,경도,위도
1,3020000,PHMH320123020033087500004,20121108,1,영업/정상,13,영업중,02-792-1598,,,서울특별시 용산구 한강대로 49 (한강로3가),4379,GS25용산점,2.01308E+13,I,59:59.0,196751.1846,447037.7354,,126.963971835532,37.5255117226894
2,3020000,PHMH320123020033087500008,20121108,1,영업/정상,13,영업중,,,,서울특별시 용산구 한강대로 205 (한강로1가),4322,CU용산파크자이점,2.01308E+13,I,59:59.0,197514.1458,448264.3223,,126.971921512507,37.5369440498093
3,3020000,PHMH320123020033087500009,20121108,1,영업/정상,13,영업중,02-3275-3220,,,서울특별시 용산구 청파로 395 (서계동),4300,미니스톱 서울역점,2.01308E+13,I,59:59.0,197167.7779,450288.5618,,126.968749477902,37.5548756924222
4,3020000,PHMH320123020033087500012,20121108,1,영업/정상,13,영업중,02-796-9558,,서울특별시 용산구 한강로2가 2번지 36호 한강현대하이엘,서울특별시 용산구 새창로 213-12 한강현대하이엘 106호 (한강로2가),4376,지에스25 용산하이엘점,2.01806E+13,I,59:59.0,197105.4266,447582.7198,,126.968028368397,37.5304898454085
5,3020000,PHMH320123020033087500015,20121108,1,영업/정상,13,영업중,02-716-4925,,,서울특별시 용산구 청파로71길 40 (청파동1가),4304,GS25청파제일점,2.01308E+13,I,59:59.0,197092.4798,449710.6492,,126.967883685869,37.5496564104898
6,3020000,PHMH320123020033087500016,20121108,1,영업/정상,13,영업중,,140857,서울특별시 용산구 이태원동 243번지 37호,서울특별시 용산구 회나무로44길 46 302호 (이태원동),4346,GS25용산하얏트점,2.01403E+13,I,59:59.0,199509.3092,448585.5313,,126.99527661251,37.5394809122115
7,3020000,PHMH320123020033087500017,20121108,1,영업/정상,13,영업중,070-8639-2848,,,서울특별시 용산구 우사단로2길 12 (보광동),4414,세븐일레븐 보광우사단로점,2.01308E+13,I,59:59.0,199702.5014,447592.8062,,126.997409229721,37.5305779775352
8,3020000,PHMH320123020033087500019,20121108,1,영업/정상,13,영업중,,,,서울특별시 용산구 청파로47길 57 (청파동3가),4313,GS25숙대점,2.01308E+13,I,59:59.0,197035.084,449151.7622,,126.96720410876,37.5446316584312
9,3020000,PHMH320123020033087500024,20121109,1,영업/정상,13,영업중,,,,서울특별시 용산구 두텁바위로 13 (갈월동),4335,GS25용산그린점,2.01308E+13,I,59:59.0,197625.477,449251.2093,,126.973918552532,37.545509032863
10,3020000,PHMH320123020033087500025,20121109,1,영업/정상,13,영업중,222094406,140901,서울특별시 용산구 후암동 105번지 3호,서울특별시 용산구 후암로 47 (후암동),4332,GS25후암중앙점,2.01402E+13,I,59:59.0,197909.5347,449753.226,,126.977203846234,37.550125013857
11,3020000,PHMH320123020033087500026,20121109,1,영업/정상,13,영업중,,,,서울특별시 용산구 신흥로 149 (후암동),4337,GS25후암본점,2.01702E+13,I,59:59.0,198299.4523,449352.5106,,126.981551101469,37.5464453132588
12,3020000,PHMH320123020033087500027,20121109,1,영업/정상,13,영업중,02-715-5557,,,서울특별시 용산구 만리재로24길 47 (서계동),4303,세븐일레븐 용산서계점,2.01308E+13,I,59:59.0,196903.0764,450001.2119,,126.965733952954,37.552259442444
13,3020000,PHMH320123020033087500028,20121109,1,영업/정상,13,영업중,,,,서울특별시 용산구 새창로45길 79 (신계동),4370,GS25용산신계점,2.01308E+13,I,59:59.0,196970.6687,448034.4543,,126.966436595891,37.5345859770962
14,3020000,PHMH320123020033087500031,20121109,1,영업/정상,13,영업중,,,,서울특별시 용산구 대사관로 66 (한남동),4402,GS25한남제일점,2.01308E+13,I,59:59.0,200400.87,447878.7777,,127.005317476328,37.5330708904591
15,3020000,PHMH320123020033087500035,20121112,1,영업/정상,13,영업중,,,,서울특별시 용산구 한강대로 290-1 (남영동),4352,GS25숙대입구역점,2.01308E+13,I,59:59.0,197504.9943,449104.9534,,126.972584824293,37.5442108178466
16,3020000,PHMH320123020033087500037,20121112,1,영업/정상,13,영업중,,,,서울특별시 용산구 장문로45길 73 (보광동),4415,이마트24 보광사랑점,2.01903E+13,U,40:00.0,199953.7019,447435.72,,127.000261590827,37.529164772297
17,3020000,PHMH320123020033087500039,20121112,1,영업/정상,13,영업중,,,,서울특별시 용산구 독서당로 86 (한남동),4420,(주)코리아세븐한남UN점,2.01308E+13,I,59:59.0,200824.5593,448002.7378,,127.010092990385,37.5342805839019
18,3020000,PHMH320123020033087500042,20121112,1,영업/정상,13,영업중,,,,서울특별시 용산구 한강대로44길 16 101호 (한강로2가),4382,CU 한강로마루점,2.01705E+13,I,59:59.0,197341.9329,447606.5071,,126.970722618267,37.530708090288
19,3020000,PHMH320123020033087500046,20121113,1,영업/정상,13,영업중,,,서울특별시 용산구 한남동 738번지 24호,서울특별시 용산구 이태원로 245 (한남동),4348,이마트24 한남제일점,2.01908E+13,U,40:00.0,200034.2034,448331.6966,,127.000124299657,37.5370172264752
20,3020000,PHMH320123020033087500048,20121113,1,영업/정상,13,영업중,,,,서울특별시 용산구 청파로 112 (한강로3가),4371,GS25용산전자회관점,2.01308E+13,I,59:59.0,196727.5358,447868.1283,,126.963775415686,37.533089037333
21,3020000,PHMH320123020033087500050,20121114,1,영업/정상,13,영업중,,,,서울특별시 용산구 백범로90길 74 (문배동),4315,GS25용산으뜸,2.01308E+13,I,59:59.0,197313.8352,448424.2155,,126.969662343385,37.5374905097101
22,3020000,PHMH320123020033087500051,20121114,1,영업/정상,13,영업중,,,,서울특별시 용산구 효창원로69길 15 (효창동),4318,GS25효창행복점,2.01308E+13,I,59:59.0,196506.0633,448846.4248,,126.961261223085,37.5418555772294
23,3020000,PHMH320123020033087500053,20121114,1,영업/정상,13,영업중,,,,서울특별시 용산구 원효로89길 18 (원효로1가),4314,CU용산경찰서점,2.01308E+13,I,59:59.0,197124.0485,448737.3308,,126.968221515331,37.5408448960509
24,3020000,PHMH320123020033087500055,20121114,1,영업/정상,13,영업중,,,,서울특별시 용산구 한강대로 259 (갈월동),4322,GS25남영역점,2.01308E+13,I,59:59.0,197495.8187,448806.677,,126.972413017671,37.5415847778259
25,3020000,PHMH320123020033087500059,20121114,1,영업/정상,13,영업중,,,,서울특별시 용산구 한강대로43길 8 (한강로2가),4376,CU한강로벽산점,2.01308E+13,I,59:59.0,197257.7652,447772.2984,,126.969348710874,37.5320314186926
26,3020000,PHMH320123020033087500064,20121114,1,영업/정상,13,영업중,,,,서울특별시 용산구 한남대로21길 18 (한남동),4401,GS25한남중앙,2.01308E+13,I,59:59.0,200476.2804,447983.1332,,127.006145445296,37.5339880571898
27,3020000,PHMH320123020033087500066,20121115,1,영업/정상,13,영업중,,,,서울특별시 용산구 청파로43길 70 (청파동3가),4313,씨유숙대도서관점,2.01308E+13,I,59:59.0,196996.7917,449101.1753,,126.966804742229,37.5441825158906
28,3020000,PHMH320123020033087500068,20121115,1,영업/정상,13,영업중,,,,서울특별시 용산구 신흥로20길 1 (용산동2가),4328,미니스톱남산소월점,2.01308E+13,I,59:59.0,198610.4036,449295.8123,,126.985097370878,37.5459086634884
29,3020000,PHMH320123020033087500074,20121115,1,영업/정상,13,영업중,,,,서울특별시 용산구 보광로59길 36 (이태원동),4391,씨유이태원점,2.01308E+13,I,59:59.0,199223.8155,447968.0359,,126.991992787036,37.5339258606168
30,3020000,PHMH320123020033087500078,20121115,1,영업/정상,13,영업중,,,,서울특별시 용산구 보광로 126 (이태원동),4406,씨유이태원해밀턴점,2.01309E+13,I,59:59.0,199419.4677,447976.9355,,126.994219088553,37.534016538366
31,3020000,PHMH320123020033087500079,20121115,1,영업/정상,13,영업중,,,,서울특별시 용산구 이촌로 196 (이촌동),4427,세븐일레븐 동부이촌본점,2.01309E+13,I,59:59.0,197177.4731,446543.2162,,126.968841509278,37.5211599989913
32,3020000,PHMH320123020033087500081,20121115,1,영업/정상,13,영업중,,140872,서울특별시 용산구 한강로2가 88번지,서울특별시 용산구 한강대로48길 17-5 (한강로2가),4382,GS25삼각지점,2.01309E+13,I,59:59.0,197423.3886,447712.3759,,126.971639058855,37.5316563601328
33,3020000,PHMH320123020033087500085,20121116,1,영업/정상,13,영업중,,,,서울특별시 용산구 서빙고로51길 64 (서빙고동),4384,(주)코리아세븐서빙고점,2.01309E+13,I,59:59.0,199162.134,446755.6685,,126.991189227031,37.5231928747826
34,3020000,PHMH320123020033087500087,20121116,1,영업/정상,13,영업중,711-0998,,,서울특별시 용산구 한강대로 283 (갈월동),4321,(주)코리아세븐 숙대역점,2.01309E+13,I,59:59.0,197450.8325,449012.5184,,126.971958470342,37.5434395275265
35,3020000,PHMH320123020033087500089,20121116,1,영업/정상,13,영업중,,,,서울특별시 용산구 백범로 90-26 (문배동),4368,(주)코리아세븐 용산아크로타워점,2.01508E+13,I,59:59.0,,,,126.957071177669,37.5408313814023
36,3020000,PHMH320123020033087500090,20121116,1,영업/정상,13,영업중,,140826,서울특별시 용산구 보광동 448번지,서울특별시 용산구 장문로 104 상가동동 102.103호 (보광동),4416,(주)코리아세븐 보광점,2.0191E+13,U,40:00.0,200093.9477,447069.047,,127.001223461678,37.5261042365334
37,3020000,PHMH320123020033087500091,20121116,1,영업/정상,13,영업중,,,,서울특별시 용산구 효창원로 18 (산천동),4360,(주)(코리아세븐 산천점,2.01309E+13,I,59:59.0,195661.1207,448019.4434,,126.951693011199,37.5344520125158
38,3020000,PHMH320123020033087500092,20121116,1,영업/정상,13,영업중,,,,서울특별시 용산구 백범로 341 (원효로1가),4315,(주)코리아세븐 용산리첸시아점,2.01309E+13,I,59:59.0,197101.1275,448437.0679,,126.96797332243,37.5379392661183
39,3020000,PHMH320123020033087500093,20121116,1,영업/정상,13,영업중,,,,서울특별시 용산구 이촌로 248 (이촌동),4426,(주)코리아세븐 이촌2호점,2.0191E+13,U,40:00.0,197722.571,446423.9531,,126.971994920515,37.5185027067335
40,3020000,PHMH320123020033087500094,20121116,1,영업/정상,13,영업중,,,,서울특별시 용산구 녹사평대로26길 30 (이태원동),4392,(주)코리아세븐 이태원점,2.01309E+13,I,59:59.0,199201.2635,447653.6156,,126.99174506675,37.531129430331
41,3020000,PHMH320123020033087500095,20121116,1,영업/정상,13,영업중,,,,서울특별시 용산구 우사단로 46 (이태원동),4405,(주)코리아세븐 이태원2호,2.01309E+13,I,59:59.0,199562.7555,447997.6618,,126.995832177098,37.534196856266
42,3020000,PHMH320123020033087500096,20121116,1,영업/정상,13,영업중,,,,서울특별시 용산구 대사관로19길 7 (한남동),4401,(주)코리아세븐 한남3호점,2.01309E+13,I,59:59.0,200249.9247,447955.7034,,127.003636568592,37.5338367473346
43,3020000,PHMH320123020033087500102,20121121,1,영업/정상,13,영업중,,,,서울특별시 용산구 임정로 111 (효창동),4311,GS25 효창점,2.01612E+13,I,59:59.0,196681.6943,449398.8035,,126.963209582332,37.5467948325877
44,3020000,PHMH320123020033087500106,20121126,1,영업/정상,13,영업중,,,,서울특별시 용산구 새창로 213 (원효로2가),4364,씨유 용산역점,2.01508E+13,I,59:59.0,197043.0706,447583.7356,,126.967263813477,37.5304728786701
45,3020000,PHMH320123020033087500107,20121128,1,영업/정상,13,영업중,,,,서울특별시 용산구 원효로53가길 8 (원효로2가),4364,미니스톱 원효로점,2.01508E+13,I,59:59.0,,,,126.962435568596,37.5374319642537
46,3020000,PHMH320123020033087500108,20121130,1,영업/정상,13,영업중,,,,서울특별시 용산구 청파로47길 35 (청파동2가),4313,바이더웨이 숙대사랑,2.01309E+13,I,59:59.0,197144.1323,449154.1759,,126.968483103035,37.5446566212413
47,3020000,PHMH320123020033087500109,20121130,1,영업/정상,13,영업중,,,,서울특별시 용산구 한강대로 128 (한강로2가),4382,GS25 용산행복점,2.01504E+13,I,59:59.0,197261.8508,447617.3364,,126.969807336009,37.5307986266203
48,3020000,PHMH320123020033087500112,20121206,1,영업/정상,13,영업중,,,,서울특별시 용산구 청파로47길 1 (청파동3가),4313,세븐일레븐 용산숙대점,2.01309E+13,I,59:59.0,197299.621,449164.133,,126.970302784475,37.544759439879
49,3020000,PHMH320123020033087500113,20121211,1,영업/정상,13,영업중,,,,서울특별시 용산구 이태원로19길 10 (이태원동),4350,씨유 이태원탑점,2.01309E+13,I,59:59.0,199220.2146,448064.225,,126.991934984272,37.5349384613935
50,3020000,PHMH320123020033087500115,20121218,1,영업/정상,13,영업중,,,,서울특별시 용산구 우사단로 3 (보광동),4406,한가람마트,2.01309E+13,I,59:59.0,199634.2676,447607.2354,,126.996648718045,37.5306940776547
51,3020000,PHMH320133020033087500002,20130108,1,영업/정상,13,영업중,,,,서울특별시 용산구 이촌로 274 (이촌동),4426,GS25 이촌제일점,2.01309E+13,I,59:59.0,197906.6062,446270.3767,,126.977109856799,37.5186989728447
52,3020000,PHMH320133020033087500004,20130111,1,영업/정상,13,영업중,,,,서울특별시 용산구 이태원로 185 (이태원동),4350,GS25 이태원점,2.01309E+13,I,59:59.0,199451.1796,448052.4759,,126.994596302356,37.5347257148824
53,3020000,PHMH320133020033087500006,20130122,1,영업/정상,13,영업중,,,,서울특별시 용산구 원효로 73 (원효로4가),4362,씨유 용산원효로점,2.01309E+13,I,59:59.0,195698.9263,447835.9904,,126.952131930653,37.5327628451188
54,3020000,PHMH320133020033087500009,20130125,1,영업/정상,13,영업중,,,,서울특별시 용산구 원효로 255 (원효로1가),4314,GS25 원효로점,2.01309E+13,I,59:59.0,197184.3058,448684.3292,,126.968936180746,37.540428984352
55,3020000,PHMH320133020033087500012,20130228,1,영업/정상,13,영업중,,,,서울특별시 용산구 서빙고로 67 107호 (용산동5가),4385,(주)코리아세븐 용산파크타워점,2.01309E+13,I,59:59.0,197338.9151,446893.4844,,126.971460817244,37.5240346278196
56,3020000,PHMH320133020033087500014,20130417,1,영업/정상,13,영업중,,,,서울특별시 용산구 청파로 247 1층 (청파동3가),4313,씨유 청파선린점,2.01309E+13,I,59:59.0,197317.2978,448822.9268,,126.970402784447,37.5417256737694
57,3020000,PHMH320133020033087500015,20130419,1,영업/정상,13,영업중,,,,서울특별시 용산구 효창원로 17 102~104호 (산천동 리버힐삼성아파트),4358,GS25산천리버힐,2.02008E+13,U,03:00.0,195563.5351,448111.8862,,126.949091397663,37.5349964883458
58,3020000,PHMH320133020033087500016,20130507,1,영업/정상,13,영업중,,,,서울특별시 용산구 삼개로 60 102102호 (청암동),4359,씨유 용산자이점,2.0191E+13,U,40:00.0,195266.3624,448085.6595,,126.946404222174,37.5353388735454
59,3020000,PHMH320133020033087500017,20130508,1,영업/정상,13,영업중,,,,서울특별시 용산구 보광로24길 18 2층 (보광동),4415,씨유 보광중앙점,2.01309E+13,I,59:59.0,199931.1148,447369.8463,,127.00001221311,37.5285868506564
60,3020000,PHMH320133020033087500021,20131025,1,영업/정상,13,영업중,02-749-4634,,서울특별시 용산구 용산동2가 39번지 16호,서울특별시 용산구 신흥로7길 1 (용산동2가),4338,씨유 용산해방촌점,2.01508E+13,I,59:59.0,198796.525,448851.8589,,126.987180707415,37.5419236651559
61,3020000,PHMH320143020033087500002,20140319,1,영업/정상,13,영업중,796-3744,140031,서울특별시 용산구 이촌동 301번지 151호,서울특별시 용산구 이촌로 245 (이촌동),4423,세븐일레븐 이촌점,2.01403E+13,I,59:59.0,197646.3889,446420.7593,72.7,126.974426245358,37.5199477851261
62,3020000,PHMH320143020033087500003,20140327,1,영업/정상,13,영업중,702-7773,140848,서울특별시 용산구 원효로3가 51번지 7호,서울특별시 용산구 원효로 154 (원효로3가),4366,CU 원효대로점,2.01403E+13,I,59:59.0,196427.0861,448029.2606,132.2,126.960422637302,37.5344257924791
63,3020000,PHMH320143020033087500005,20140428,1,영업/정상,13,영업중,02-755-4043,140170,서울특별시 용산구 동자동 45번지 센트레빌아스테리움 제비동 101호,서울특별시 용산구 한강대로 372 (동자동),4323,씨유 용산아스테리움점,2.01404E+13,I,59:59.0,197563.0698,449934.1578,80.94,126.973600731263,37.5516671675301
64,3020000,PHMH320143020033087500006,20140428,1,영업/정상,13,영업중,02-3785-0964,140857,서울특별시 용산구 이태원동 243번지 39호,서울특별시 용산구 회나무로44가길 2 (이태원동),4346,씨유 이태원하얏트점,2.01404E+13,I,59:59.0,199503.4939,448566.3398,82,126.995170145367,37.5393227205844
65,3020000,PHMH320143020033087500010,20140530,1,영업/정상,13,영업중,757-0324,140901,서울특별시 용산구 후암동 244번지 135호,서울특별시 용산구 후암로28길 49 (후암동),4330,씨유 후암제일점,2.0191E+13,U,40:00.0,198161.6768,449685.3173,42,126.979976811031,37.5494059942669
66,3020000,PHMH320143020033087500011,20140630,1,영업/정상,13,영업중,749-1246,140893,서울특별시 용산구 한남동 738번지 17호,서울특별시 용산구 이태원로 235 (한남동),4348,GS25 이태원제일점,2.01406E+13,I,59:59.0,199884.2488,448210.4266,,126.999487817346,37.5361391373293
67,3020000,PHMH320143020033087500013,20140717,1,영업/정상,13,영업중,15779621,140723,서울특별시 용산구 이촌동 301번지 160호 21동 104호-나 105-가호,서울특별시 용산구 이촌로 303 (이촌동),4424,미니스톱 동부이촌점,2.01407E+13,I,59:59.0,198236.2964,446262.5441,110,126.97951342344,37.5183523827614
68,3020000,PHMH320143020033087500018,20141028,1,영업/정상,13,영업중,02-711-8373,,,서울특별시 용산구 효창원로69길 15 1층 (효창동),4318,GS25 효창행복점,2.0141E+13,I,59:59.0,196506.0633,448846.4248,128.9,126.961261223085,37.5418555772294
69,3020000,PHMH320143020033087500019,20141029,1,영업/정상,13,영업중,,140823,서울특별시 용산구 보광동 259번지 1호,서울특별시 용산구 보광로 46 (보광동),4414,지에스25용산보광점,2.01704E+13,I,59:59.0,199860.8198,447348.1009,33,126.999196318591,37.5283163226322
70,3020000,PHMH320143020033087500020,20141030,1,영업/정상,13,영업중,,,,서울특별시 용산구 한강대로 401 (동자동),4320,지에스25서울역점,2.0141E+13,I,59:59.0,197484.8769,450194.4956,,126.972317514215,37.5540286516505
71,3020000,PHMH320143020033087500021,20141103,1,영업/정상,13,영업중,,140851,서울특별시 용산구 원효로4가 142번지 1호,서울특별시 용산구 원효로 55 (원효로4가),4360,세븐일레븐 용산원효점,2.01411E+13,I,59:59.0,195556.8539,447925.9082,49.5,126.950484242328,37.5335563101441
72,3020000,PHMH320143020033087500022,20141103,1,영업/정상,13,영업중,,,,서울특별시 용산구 한강대로23길 55 (한강로3가 용산민자역사),4377,(주)코리아세븐 용산아이파크몰점,2.01511E+13,I,59:59.0,196762.0774,447480.0396,49.5,126.96474137477,37.529771938775
73,3020000,PHMH320143020033087500023,20141121,1,영업/정상,13,영업중,,140901,서울특별시 용산구 후암동 194번지 8호,서울특별시 용산구 후암로 1 (후암동),4335,씨유 후암아리랑점,2.01411E+13,I,59:59.0,198009.2236,449311.9202,89.3,126.978284268713,37.5460680409402
74,3020000,PHMH320143020033087500024,20141121,1,영업/정상,13,영업중,,140230,서울특별시 용산구 동빙고동 7번지 22호,서울특별시 용산구 장문로 14 (동빙고동),4393,(주)코리아세븐 캐피탈점,2.01411E+13,I,59:59.0,199237.4315,447381.501,49.5,126.99216982501,37.5286818311817
75,3020000,PHMH320143020033087500026,20141211,1,영업/정상,13,영업중,,140857,서울특별시 용산구 이태원동 212번지 24호,서울특별시 용산구 회나무로26길 3 (이태원동),4346,(주)코리아세븐이태원중앙점,2.01412E+13,I,59:59.0,199195.2729,448582.5228,49.5,126.991670631301,37.5394914034804
76,3020000,PHMH320143020033087500027,20141215,1,영업/정상,13,영업중,02-318-3278,,,서울특별시 용산구 한강대로 306 (갈월동),4334,씨유숙대입구점,2.01412E+13,I,59:59.0,197475.2397,449256.4596,99,126.971876707566,37.5452013009972
77,3020000,PHMH320143020033087500028,20141230,1,영업/정상,13,영업중,,,,서울특별시 용산구 효창원로 150 (효창동),4317,(주)코리아세븐효창공원점,2.01412E+13,I,59:59.0,196596.439,448791.7623,49.5,126.962284871312,37.5413735140379
78,3020000,PHMH320153020033087500001,20150114,1,영업/정상,13,영업중,,140871,서울특별시 용산구 한강로2가 2번지 11호,서울특별시 용산구 한강대로43길 13 (한강로2가),4376,씨유용산한강로점,2.01802E+13,I,59:59.0,197197.3031,447701.9273,,126.969146187012,37.5315629773447
79,3020000,PHMH320153020033087500002,20150116,1,영업/정상,13,영업중,,140909,서울특별시 용산구 이촌동 206번지 27호,서울특별시 용산구 이촌로14길 11-6 (이촌동),4374,365플러스서부이촌점,2.01501E+13,I,59:59.0,195892.743,447202.5266,,126.954323179697,37.5270686076844
80,3020000,PHMH320153020033087500003,20150204,1,영업/정상,13,영업중,,140170,서울특별시 용산구 동자동 45번지,서울특별시 용산구 한강대로 372 (동자동),4323,지에스25동자플래티넘점,2.01502E+13,I,59:59.0,197563.0698,449934.1578,54.5,126.973600731263,37.5516671675301
81,3020000,PHMH320153020033087500004,20150212,1,영업/정상,13,영업중,,140100,서울특별시 용산구 문배동 40번지 39호,서울특별시 용산구 청파로 205-26 (문배동),4315,코리아세븐용산이안점,2.01502E+13,I,59:59.0,197261.3897,448510.8173,,126.969811774274,37.5388657406681
82,3020000,PHMH320153020033087500006,20150212,1,영업/정상,13,영업중,27020761,140060,서울특별시 용산구 한강로1가 231번지 6호,서울특별시 용산구 한강대로62길 48 (한강로1가),4382,씨유용산신창점,2.01502E+13,I,59:59.0,197578.1414,447844.9602,,126.973392845094,37.5328370326058
83,3020000,PHMH320153020033087500007,20150212,1,영업/정상,13,영업중,02-792-3801,140201,서울특별시 용산구 이태원동 226번지 3호,서울특별시 용산구 회나무로26길 12 103호 (이태원동),4345,지에스25이태원노블,2.01502E+13,I,59:59.0,199155.5107,448589.3842,132,126.991277523085,37.5395595653401
84,3020000,PHMH320153020033087500008,20150227,1,영업/정상,13,영업중,070-4244-5118,140133,서울특별시 용산구 청파동3가 24번지 4호,서울특별시 용산구 청파로 275 (청파동3가),4313,지에스25용산청파점,2.01503E+13,I,59:59.0,197321.0657,449090.4016,,126.970473241012,37.5440683282453
85,3020000,PHMH320153020033087500012,20150511,1,영업/정상,13,영업중,070-4202-6494,140201,서울특별시 용산구 이태원동 455번지 52호,서울특별시 용산구 녹사평대로40길 55 (이태원동),4351,지에스25이태원힐점,2.01708E+13,I,59:59.0,198942.3886,448023.2095,,126.98880962898,37.5344202167002
86,3020000,PHMH320153020033087500017,20150720,1,영업/정상,13,영업중,,140190,서울특별시 용산구 후암동 43번지 14호,서울특별시 용산구 두텁바위로 147 (후암동),4330,지에스25용산후암,2.01507E+13,I,59:59.0,198238.8358,449921.1825,49,126.980838637535,37.5515449030427
87,3020000,PHMH320153020033087500018,20150723,1,영업/정상,13,영업중,797-5008,140201,서울특별시 용산구 이태원동 137번지 62호,서울특별시 용산구 우사단로10길 23 (이태원동),4405,지에스25이태원본점,2.0191E+13,U,40:00.0,199659.0578,447896.5981,115.7,126.996938904686,37.5333036486653
88,3020000,PHMH320153020033087500019,20150804,1,영업/정상,13,영업중,02-795-2411,,서울특별시 용산구 이태원동 187번지,서울특별시 용산구 녹사평대로40다길 30 (이태원동),4351,씨유이태원1동점,2.01508E+13,I,59:59.0,199029.3434,448144.2772,89,126.989800189397,37.5355343351661
89,3020000,PHMH320153020033087500020,20150904,1,영업/정상,13,영업중,070-4114-4736,,서울특별시 용산구 후암동 244번지 71호,서울특별시 용산구 후암로 42-2 (후암동),4331,씨유후암좋아요점,2.01509E+13,I,59:59.0,197950.438,449726.556,82.5,126.977562662384,37.5498088764026
90,3020000,PHMH320153020033087500023,20150925,1,영업/정상,13,영업중,,,,서울특별시 용산구 독서당로 22 (한남동),4410,지에스25 한남역점,2.01509E+13,I,59:59.0,200614.3199,447561.559,,127.007801167764,37.5301620557349
91,3020000,PHMH320153020033087500024,20151012,1,영업/정상,13,영업중,,,,서울특별시 용산구 후암로 29 (후암동 은전탕),4332,(주)코리아세븐 용산후암진흥점,2.0151E+13,I,59:59.0,197947.2219,449587.4035,49.5,126.977559353136,37.5485604928249
92,3020000,PHMH320153020033087500026,20151111,1,영업/정상,13,영업중,,,,서울특별시 용산구 한강대로40길 5 (한강로2가 선우약국),4382,세븐일레븐 신용산점,2.01511E+13,I,59:59.0,197241.8308,447570.1345,36,126.969614866923,37.5304079276605
93,3020000,PHMH320153020033087500031,20151203,1,영업/정상,13,영업중,,,,서울특별시 용산구 이촌로 1 (한강로3가 GS한강에클라트),4373,세븐일레븐 원효점,2.01512E+13,I,59:59.0,196005.8364,447699.7588,47.08,126.955347145189,37.5313851300661
94,3020000,PHMH320153020033087500032,20151214,1,영업/정상,13,영업중,,,,서울특별시 용산구 이태원로54길 11 (한남동),4399,씨유 용산한강진,2.01911E+13,U,40:00.0,200121.3543,448406.8413,72,127.00208811808,37.5378717123763
95,3020000,PHMH320153020033087500033,20151214,1,영업/정상,13,영업중,27953803,,,서울특별시 용산구 회나무로 17 (이태원동),4343,지에스25 경리단길점,2.01512E+13,I,59:59.0,198935.6067,448544.6504,42,126.988773077724,37.5391509831815
96,3020000,PHMH320153020033087500034,20151217,1,영업/정상,13,영업중,27156216,,,서울특별시 용산구 청파로43길 23 (청파동3가),4313,GS25 숙대제일점,2.01512E+13,I,59:59.0,197221.5141,449024.8215,79.34,126.969366440853,37.5435056945049
97,3020000,PHMH320153020033087500035,20151221,1,영업/정상,13,영업중,,,,서울특별시 용산구 우사단로2가길 6 (보광동),4413,365플러스 용산보광점,2.01806E+13,I,59:59.0,199881.3034,447502.6107,40,126.999452616179,37.5297629995693
98,3020000,PHMH320163020033087500001,20160112,1,영업/정상,13,영업중,02-707-1054,,,서울특별시 용산구 한강대로 270 (남영동),4352,씨유 용산고리점,2.01601E+13,I,59:59.0,197557.4309,448906.2956,145,126.973036222244,37.5423999476456
99,3020000,PHMH320163020033087500003,20160204,1,영업/정상,13,영업중,02-790-8168,,,서울특별시 용산구 이태원로 211 (한남동 한남빌딩),4349,(주)코리아세븐 관광특구점,2.01602E+13,I,59:59.0,199678.6851,448086.5646,49.5,126.997274229801,37.5349871805049
100,3020000,PHMH320163020033087500004,20160310,1,영업/정상,13,영업중,02-795-2354,,서울특별시 용산구 한남동 72번지 1호,서울특별시 용산구 한남대로 60 1층 제디-115호 116호 (한남동 금호리첸시아),4419,CU한남리첸시아점,2.01603E+13,I,59:59.0,200628.5547,448024.7205,34,127.007872668527,37.5344606361039
101,3020000,PHMH320163020033087500005,20160325,1,영업/정상,13,영업중,02-792-5386,,,서울특별시 용산구 대사관로30가길 30 1층 (한남동),4402,씨유 한남샘물,2.01603E+13,I,59:59.0,200286.1395,447749.412,62.07,127.004040826887,37.5319726454123
102,3020000,PHMH320163020033087500006,20160328,1,영업/정상,13,영업중,02-749-9143,,,서울특별시 용산구 보광로 95 1층 (이태원동),4392,(주)코리아세븐 이태원청화점,2.0191E+13,U,40:00.0,199480.9727,447678.4199,49.5,126.99495278823,37.5313763719645
103,3020000,PHMH320163020033087500007,20160401,1,영업/정상,13,영업중,02-701-6569,,,서울특별시 용산구 새창로14길 17 (용문동),4356,(주)코리아세븐 용문제일점,2.0191E+13,U,40:00.0,196296.9199,448499.6563,49.5,126.958949682646,37.5387500428794
104,3020000,PHMH320163020033087500009,20160421,1,영업/정상,13,영업중,02-6362-7993,,,서울특별시 용산구 원효로90길 11 106호 (원효로1가 용산더프라임),4315,GS25 용산프라임,2.01604E+13,I,59:59.0,197292.3302,448738.6379,54.8,126.969718175217,37.540395362977
105,3020000,PHMH320163020033087500010,20160420,1,영업/정상,13,영업중,02-703-2377,,,서울특별시 용산구 원효로41길 14 (원효로3가),4363,지에스25 용산원효점,2.01604E+13,I,59:59.0,196261.0203,448012.1403,59.4,126.958472143476,37.5343492629816
106,3020000,PHMH320163020033087500013,20160607,1,영업/정상,13,영업중,,,,서울특별시 용산구 청파로47길 83 1층 (청파동2가 숙명빌딩),4312,(주)코리아세븐 청파숙대점,2.01606E+13,I,59:59.0,196902.7829,449189.8362,49.5,126.965745775998,37.544951808482
107,3020000,PHMH320163020033087500015,20160628,1,영업/정상,13,영업중,02-701-2817,,,서울특별시 용산구 청파로73길 7 1층 (청파동1가),4304,세븐일레븐 청파제일점,2.01606E+13,I,59:59.0,197212.6943,449725.9453,114.56,126.969217801075,37.5498021243487
108,3020000,PHMH320163020033087500016,20160706,1,영업/정상,13,영업중,02-792-2686,,,서울특별시 용산구 이촌로 248 107-1호 (이촌동 한강맨션),4426,씨유 동부이촌점,2.01607E+13,I,59:59.0,197722.571,446423.9531,36.36,126.971994920515,37.5185027067335
109,3020000,PHMH320163020033087500017,20160707,1,영업/정상,13,영업중,,,,서울특별시 용산구 한강대로104길 51 1층 (동자동 남영빌딩(제1호)),4324,GS25용산동자,2.01607E+13,I,59:59.0,197719.5817,449813.3361,132.23,126.974978957174,37.5505748298989
110,3020000,PHMH320163020033087500018,20160805,1,영업/정상,13,영업중,,,서울특별시 용산구 이태원동 168번지 12호 인제약국,서울특별시 용산구 이태원로 161 인제약국 1층 (이태원동),4351,이마트24이태원역점,2.01712E+13,I,59:59.0,199203.9361,448032.4153,33,126.991810359654,37.5345390768388
111,3020000,PHMH320163020033087500019,20160812,1,영업/정상,13,영업중,02-701-7413,,,서울특별시 용산구 효창원로 54 1층 (신창동),4361,이마트24 용산신창점,2.01908E+13,U,40:00.0,195966.8812,448159.9577,66,126.955169017192,37.535645535092
112,3020000,PHMH320163020033087500020,20160822,1,영업/정상,13,영업중,02-792-7825,,,서울특별시 용산구 대사관로34길 50 101 102호 (한남동 서원빌딩),4409,씨유 한남역점,2.01608E+13,I,59:59.0,200448.0783,447638.7331,66.24,127.005865560671,37.5309482452466
113,3020000,PHMH320163020033087500023,20160920,1,영업/정상,13,영업중,02-712-5777,,,서울특별시 용산구 이촌로 100-11 1층 9호 (이촌동),4381,씨유(CU) 서부이촌점,2.01609E+13,I,59:59.0,196292.7039,446794.629,56,126.958826674571,37.5233679167188
114,3020000,PHMH320163020033087500025,20160929,1,영업/정상,13,영업중,,,,서울특별시 용산구 회나무로13가길 41 1층 (이태원동),4344,씨유 이태원2동점,2.0161E+13,I,59:59.0,199216.7626,448752.2821,33,126.991937656971,37.5410090762042
115,3020000,PHMH320163020033087500027,20161026,1,영업/정상,13,영업중,,,,서울특별시 용산구 이촌로14길 11-6 제1동 제1층 101호 (이촌동 시범아파트),4374,(주)코리아세븐 용산서부이촌점,2.0161E+13,I,59:59.0,195892.743,447202.5266,50,126.954323179697,37.5270686076844
116,3020000,PHMH320163020033087500028,20161123,1,영업/정상,13,영업중,,,,서울특별시 용산구 서빙고로91나길 72 (동빙고동),4395,GS25동빙고제일점,2.01611E+13,I,59:59.0,199621.3591,446867.6793,,126.996506656893,37.52404599062
117,3020000,PHMH320163020033087500029,20161128,1,영업/정상,13,영업중,02-790-3221,,,서울특별시 용산구 신흥로18길 4 1층 (용산동2가),4339,씨유 용산해방촌오거리점,2.01701E+13,I,59:59.0,198677.9861,449271.396,,126.985826788205,37.5457068749178
118,3020000,PHMH320173020033087500001,20170102,1,영업/정상,13,영업중,,,,서울특별시 용산구 장문로19길 10 (보광동),4394,씨유 보광오산점,2.01701E+13,I,59:59.0,199761.408,447100.5271,55,126.998088329814,37.5261393570333
119,3020000,PHMH320173020033087500002,20170105,1,영업/정상,13,영업중,02-796-9026,,,서울특별시 용산구 이태원로 176-1 (이태원동),4391,이태원 마트,2.01701E+13,I,59:59.0,199365.0135,448003.8031,29.7,126.993599675787,37.5342887962955
120,3020000,PHMH320173020033087500003,20170112,1,영업/정상,13,영업중,02-794-4640,,,서울특별시 용산구 두텁바위로 12 (남영동),4352,씨유 용산남영점,2.01701E+13,I,59:59.0,197576.4979,449207.136,66,126.97337146468,37.5451313622167
121,3020000,PHMH320173020033087500004,20170201,1,영업/정상,13,영업중,,,,서울특별시 용산구 원효로35길 50 (신창동),4363,씨유 용산신창점,2.01702E+13,I,59:59.0,196010.8229,448114.607,40,126.955649390929,37.535252237734
122,3020000,PHMH320173020033087500005,20170202,1,영업/정상,13,영업중,02-790-1091,,,서울특별시 용산구 장문로 96 (보광동 그린서적),4395,GS25 보광그린점,2.01702E+13,I,59:59.0,199940.1148,447079.5,,127.000127275729,37.5259722406476
123,3020000,PHMH320173020033087500007,20170309,1,영업/정상,13,영업중,,4338,,서울특별시 용산구 신흥로7길 34 1층 (용산동2가),4338,지에스25 용산리버티,2.01703E+13,I,59:59.0,198710.7425,448987.3285,,126.986183307775,37.5431406596558
124,3020000,PHMH320173020033087500013,20170410,1,영업/정상,13,영업중,,,,서울특별시 용산구 효창원로 117 (용문동),4355,(주)코리아세븐 용산용문점,2.01704E+13,I,59:59.0,196469.4283,448498.8412,,126.960887485991,37.5387374534496
125,3020000,PHMH320173020033087500014,20170407,1,영업/정상,13,영업중,,,,서울특별시 용산구 한강대로 205 씨동 씨12호 (한강로1가 용산파크자이),4322,GS25 용산파크자이점,2.01704E+13,I,59:59.0,197514.1458,448264.3223,,126.971921512507,37.5369440498093
126,3020000,PHMH320173020033087500015,20170413,1,영업/정상,13,영업중,,4410,,서울특별시 용산구 독서당로 46 1층 122호 (한남동 한남아이파크),4410,지에스25한남아이파크점,2.01704E+13,I,59:59.0,200624.874,448099.3595,40,127.007258165697,37.5323816270482
127,3020000,PHMH320173020033087500016,20170504,1,영업/정상,13,영업중,,,서울특별시 용산구 동빙고동 1번지 10호,서울특별시 용산구 장문로6길 97 1층 (동빙고동),4393,GS25 동빙고점,2.01705E+13,I,59:59.0,199608.6129,447092.2097,,126.996372052146,37.5260779694387
128,3020000,PHMH320173020033087500017,20170510,1,영업/정상,13,영업중,02-794-1220,,서울특별시 용산구 용산동2가 5번지 754호,서울특별시 용산구 신흥로 29 1층 (용산동2가 고바우슈퍼),4338,GS25 용산고바우점,2.02008E+13,U,07:00.0,198767.4312,448753.9591,,126.986864748872,37.5410569956908
129,3020000,PHMH320173020033087500019,20170627,1,영업/정상,13,영업중,703-8330,4303,,서울특별시 용산구 청파로85가길 14 2층 (서계동 동강슈퍼),4303,이마트24 용산서계점,2.01711E+13,I,59:59.0,197098.6245,449991.6112,62,126.967944284589,37.5521792884183
130,3020000,PHMH320173020033087500021,20170630,1,영업/정상,13,영업중,,,서울특별시 용산구 동자동 35번지 144호,서울특별시 용산구 후암로57길 31 (동자동),4324,세븐일레븐 용산동자점,2.01805E+13,I,59:59.0,197642.6706,449983.3519,,126.97409414252,37.552135904421
131,3020000,PHMH320173020033087500022,20170705,1,영업/정상,13,영업중,,4307,,서울특별시 용산구 청파로71길 57 (청파동1가),4307,CU청파느티나무점,2.01707E+13,I,59:59.0,197005.3716,449662.3189,,126.966900264931,37.5492463674911
132,3020000,PHMH320173020033087500024,20170809,1,영업/정상,13,영업중,,,,서울특별시 용산구 한남대로27가길 8 1층 (한남동),4399,씨유한남카페거리점,2.01708E+13,I,59:59.0,200222.5064,448378.5765,60.88,127.003321982475,37.53764589189
133,3020000,PHMH320173020033087500025,20170822,1,영업/정상,13,영업중,,,,서울특별시 용산구 신흥로20길 18 1층 (용산동2가 이화해법학원),4328,GS25 용산소월점,2.01708E+13,I,59:59.0,198579.833,449358.4282,,126.984741140223,37.5464716251461
134,3020000,PHMH320173020033087500026,20170904,1,영업/정상,13,영업중,,,,서울특별시 용산구 서빙고로 69 1층 12호 (용산동5가 파크타워아파트),4385,GS25 용산파크타워점,2.01709E+13,I,59:59.0,197527.3097,446787.3448,,126.972843726873,37.5234143681588
135,3020000,PHMH320173020033087500027,20170904,1,영업/정상,13,영업중,,,,서울특별시 용산구 효창원로 79 1층 (용문동),4356,씨유 용문좋아요점,2.01709E+13,I,59:59.0,196200.3897,448284.2236,,126.957793043352,37.5367909706241
136,3020000,PHMH320173020033087500028,20170913,1,영업/정상,13,영업중,02-712-0711,,,서울특별시 용산구 만리재로 198 1층 (서계동),4300,(주)코리아세븐 서울역고가서계점,2.01709E+13,I,59:59.0,197107.8404,450290.4427,,126.968060988647,37.5548736742001
137,3020000,PHMH320173020033087500029,20170915,1,영업/정상,13,영업중,,,,서울특별시 용산구 백범로 90 105106호 (문배동),4368,세븐일레븐 용산웰츠타워점,2.01709E+13,I,59:59.0,,,,126.957071177669,37.5408313814023
138,3020000,PHMH320173020033087500030,20170920,1,영업/정상,13,영업중,,,,서울특별시 용산구 한강대로 69 109호 (한강로2가 용산푸르지오써밋),4378,씨유 용산푸르지오써밋,2.01709E+13,I,59:59.0,,,,126.965379813195,37.527437985299
139,3020000,PHMH320173020033087500031,20171013,1,영업/정상,13,영업중,,,,서울특별시 용산구 한강대로17길 24 1층 (한강로3가),4379,세븐일레븐 한강로3가점,2.0171E+13,I,59:59.0,196715.4958,447162.1282,30,126.96355835937,37.5267526299802
140,3020000,PHMH320173020033087500032,20171016,1,영업/정상,13,영업중,,,,서울특별시 용산구 녹사평대로 168 1층 (이태원동),4390,지에스25 이태원스카이점,2.0171E+13,I,59:59.0,198969.9733,447895.3789,72.41,126.989122024735,37.5333196655481
141,3020000,PHMH320173020033087500033,20171017,1,영업/정상,13,영업중,,4372,,서울특별시 용산구 청파로20길 95 2층 (한강로3가 서울드래곤시티),4372,(주)비지에프휴먼넷 용산앰버서더호텔점,2.01712E+13,I,59:59.0,196664,447752,,126.963951201995,37.5316577682117
142,3020000,PHMH320173020033087500034,20171102,1,영업/정상,13,영업중,02-749-3904,,,서울특별시 용산구 이촌로 182 108호 (이촌동),4427,GS25동부이촌점,2.01711E+13,I,59:59.0,197044.277,446549.8926,,126.967373398649,37.5212288306155
143,3020000,PHMH320173020033087500036,20171110,1,영업/정상,13,영업중,,,,서울특별시 용산구 한남대로40길 25 1층 (한남동),4417,이마트24 용산한남점,2.01711E+13,I,59:59.0,200229.2967,448982.8824,,127.003372060602,37.5431082937343
144,3020000,PHMH320173020033087500037,20171110,1,영업/정상,13,영업중,,,,서울특별시 용산구 한강대로 142 제1호 (한강로2가),4382,씨유 신용산점,2.0191E+13,U,40:00.0,197351.5145,447738.5404,,126.970816816026,37.5318937901339
145,3020000,PHMH320173020033087500039,20171117,1,영업/정상,13,영업중,,,,서울특별시 용산구 후암로 80-1 (후암동),4326,세븐일레븐 후암삼거리점,2.01711E+13,I,59:59.0,197871.7596,450091.2205,,126.976689157722,37.5531016923498
146,3020000,PHMH320173020033087500040,20171128,1,영업/정상,13,영업중,790-6455,,,서울특별시 용산구 우사단로4길 1 1층 (이태원동),4407,씨유이태원힐점,2.01805E+13,I,59:59.0,199642.1099,447696.7666,,126.996754866756,37.5315317065698
147,3020000,PHMH320183020033087500001,20180129,1,영업/정상,13,영업중,,,,서울특별시 용산구 서빙고로51길 4 1층 (서빙고동),4384,지에스25용산서빙고점,2.01801E+13,I,59:59.0,199134.6372,446487.3618,115,126.990940680449,37.5206319582602
148,3020000,PHMH320183020033087500003,20180220,1,영업/정상,13,영업중,,,,서울특별시 용산구 두텁바위로58길 6 2층 (후암동),4328,지에스25 후암호호점,2.01802E+13,I,59:59.0,198340.7928,449722.1365,,126.982018969027,37.549791374127
149,3020000,PHMH320183020033087500004,20180228,1,영업/정상,13,영업중,,,,서울특별시 용산구 신흥로 117 1층 (용산동2가),4337,씨유 용산햇살점,2.01803E+13,I,59:59.0,198416.1995,449159.4188,,126.982841581666,37.5447113665117
150,3020000,PHMH320183020033087500005,20180329,1,영업/정상,13,영업중,,,,서울특별시 용산구 청파로 74 전자랜드 1층 C-106호 (한강로3가),4372,씨유용산전자랜드본관점,2.01803E+13,I,59:59.0,196370.7464,447841.6988,,126.959558671211,37.5327880527509
151,3020000,PHMH320183020033087500007,20180501,1,영업/정상,13,영업중,,,,서울특별시 용산구 청파로85길 46 1층 107108호 (서계동),4302,씨유 용산서계점,2.01805E+13,I,59:59.0,196977.4585,450064.7904,,126.966573837319,37.5528558764766
152,3020000,PHMH320183020033087500009,20180611,1,영업/정상,13,영업중,,,,서울특별시 용산구 청파로47나길 19 1층 (청파동2가),4310,지에스25 숙대드림점,2.01806E+13,I,59:59.0,197012.7271,449292.8857,148,126.966972942244,37.5458970113513
153,3020000,PHMH320183020033087500010,20180621,1,영업/정상,13,영업중,,,,서울특별시 용산구 녹사평대로40나길 53 1층 101호 (이태원동),4345,씨유이태원햇살점,2.01806E+13,I,59:59.0,198934.3754,448292.621,56.1,126.988760110662,37.5369054801404
154,3020000,PHMH320183020033087500011,20180727,1,영업/정상,13,영업중,,,서울특별시 용산구 후암동 96번지 대성부동산,서울특별시 용산구 후암로 71-2 1층 (후암동),4325,씨유 후암미주점,2.01807E+13,I,59:59.0,197860.5879,450002.7785,50,126.97661260377,37.5523115010367
155,3020000,PHMH320183020033087500012,20180822,1,영업/정상,13,영업중,,,서울특별시 용산구 갈월동 69번지 65호,서울특별시 용산구 한강대로 303 1층 (갈월동),4320,지에스25 용산포인트점,2.01808E+13,I,59:59.0,197418.1699,449233.3047,,126.971567825342,37.545359998814
156,3020000,PHMH320183020033087500013,20180828,1,영업/정상,13,영업중,,,,서울특별시 용산구 소월로20길 53 102호 (용산동2가),4338,씨유 용산2가점,2.01808E+13,I,59:59.0,198585.6852,449119.7221,,126.984680047034,37.5442461951618
157,3020000,PHMH320183020033087500014,20180827,1,영업/정상,13,영업중,,4425,,서울특별시 용산구 이촌로 300 1층 14호 (이촌동),4425,CU 이촌챌리투스점,2.01808E+13,I,59:59.0,198260.5261,446484.7487,,126.980323220202,37.5178445202169
158,3020000,PHMH320183020033087500015,20180827,1,영업/정상,13,영업중,,4349,,서울특별시 용산구 이태원로 227 1층 1호 (한남동),4349,이마트24 이태원제일점,2.01808E+13,I,59:59.0,199826.5328,448157.3162,,126.998855189459,37.5356395388445
159,3020000,PHMH320183020033087500016,20180903,1,영업/정상,13,영업중,,,,서울특별시 용산구 녹사평대로 222 (이태원동),4345,씨유 이태원경리단점,2.01809E+13,U,59:59.0,198790.4339,448344.026,16.5,126.987068419303,37.5373510734289
160,3020000,PHMH320183020033087500017,20180920,1,영업/정상,13,영업중,,,,서울특별시 용산구 두텁바위로 75 1층 (후암동),4336,씨유 용산후암점,2.01809E+13,U,59:59.0,198207.868,449356.3021,,126.980511637985,37.5464621067109
161,3020000,PHMH320183020033087500018,20181214,1,영업/정상,13,영업중,,,,서울특별시 용산구 소월로2길 5 1층 (후암동),4326,이마트24 남산힐튼점,2.01812E+13,I,20:22.0,197884.6943,450278.758,,126.976825971867,37.5547866488953
162,3020000,PHMH320183020033087500019,20181231,1,영업/정상,13,영업중,,,서울특별시 용산구 한강로1가 231번지 6호,서울특별시 용산구 한강대로62길 48 1층 (한강로1가),4382,씨유 용산삼각지점,2.01901E+13,U,40:00.0,197578.1414,447844.9602,,126.973392845094,37.5328370326058
163,3020000,PHMH320193020033087500001,20190110,1,영업/정상,13,영업중,02-3275-3966,,,서울특별시 용산구 새창로 146 1층 (원효로2가),4366,지에스25원효타운점,2.01901E+13,I,20:47.0,196557.6827,448041.8101,181.82,126.961836768777,37.5346191855748
164,3020000,PHMH320193020033087500002,20190110,1,영업/정상,13,영업중,,,서울특별시 용산구 한남동 633번지 3호 제일빌딩,서울특별시 용산구 대사관로 72 제1층 5호 (한남동),4402,(주)코리아세븐 한남스타점,2.01903E+13,U,40:00.0,200455.144,447866.8313,56,127.005947604162,37.5330948903798
165,3020000,PHMH320193020033087500003,20190110,1,영업/정상,13,영업중,02-716-8445,,,서울특별시 용산구 백범로 346 1층 102호 (문배동 지오베르크),4368,씨유 용산지오베르크점,2.01901E+13,I,20:47.0,197045.6966,448354.778,38,126.967311396369,37.5374089918607
166,3020000,PHMH320193020033087500004,20190215,1,영업/정상,13,영업중,,,서울특별시 용산구 용산동2가 27번지 2호,서울특별시 용산구 신흥로 57 1층 (용산동2가),4338,(주)코리아세븐 용산해방촌점,2.01902E+13,U,40:00.0,198811.6626,449031.2283,,126.987351444894,37.543543412739
167,3020000,PHMH320193020033087500005,20190218,1,영업/정상,13,영업중,,,서울특별시 용산구 효창동 5번지 76호 약산빌딩,서울특별시 용산구 효창원로66길 17 1층 (효창동),4317,씨유 용산효창공원점,2.01902E+13,I,21:26.0,196653.6793,448752.0294,,126.96294624305,37.5409946218186
168,3020000,PHMH320193020033087500006,20190222,1,영업/정상,13,영업중,,,,서울특별시 용산구 신흥로16길 3 1층 (용산동2가),4339,미니스톱 용산해방촌점,2.01902E+13,I,21:34.0,198756.1807,449162.364,,126.986705268272,37.5447123612984
169,3020000,PHMH320193020033087500007,20190307,1,영업/정상,13,영업중,,,,서울특별시 용산구 후암로 23-1 1층 (후암동),4332,지에스(GS)25 후암사랑점,2.01903E+13,I,21:44.0,197963.7662,449528.4863,,126.977742139447,37.5480182383308
170,3020000,PHMH320193020033087500008,20190315,1,영업/정상,13,영업중,,,,서울특별시 용산구 한강대로62나길 2 1층 (한강로1가),4382,지에스25 용산삼각지점,2.01903E+13,I,21:57.0,197618.9262,447987.8374,,126.973873934212,37.5341382950551
171,3020000,PHMH320193020033087500009,20190327,1,영업/정상,13,영업중,,,,서울특별시 용산구 우사단로 34 1층 (이태원동),4405,미니스톱 이태원본점,2.01903E+13,I,20:08.0,199549.7463,447884.8407,,126.995691557013,37.5332284737393
172,3020000,PHMH320193020033087500010,20190328,1,영업/정상,13,영업중,,,,서울특별시 용산구 녹사평대로 254 상가1층 102103호 (이태원동 남산대림아파트),4343,씨유이태원대림점,2.01903E+13,I,20:09.0,198942.7264,448717.2037,80,126.988152634107,37.5403945037162
173,3020000,PHMH320193020033087500011,20190402,1,영업/정상,13,영업중,,,,서울특별시 용산구 청파로 389 1층 (서계동),4300,지에스25 서울역서부점,2.01904E+13,I,20:12.0,197177.6468,450239.515,30,126.968851681484,37.5544334099765
174,3020000,PHMH320193020033087500012,20190430,1,영업/정상,13,영업중,02-714-8011,,,서울특별시 용산구 만리재로 136 1층 (서계동),4305,지에스25  용산만리재점,2.01904E+13,I,20:36.0,196633.0736,449914.8442,45,126.962662946575,37.5514872020733
175,3020000,PHMH320193020033087500013,20190528,1,영업/정상,13,영업중,,,,서울특별시 용산구 두텁바위로37길 7-3 (후암동),4336,미니스톱 용산후암점,2.01905E+13,I,20:59.0,198285.4368,449455.3044,,126.981354630379,37.5473333617236
176,3020000,PHMH320193020033087500014,20190708,1,영업/정상,13,영업중,,,,서울특별시 용산구 한강대로 95 R108-1호 (한강로2가 래미안용산 더 센트럴),4378,씨유 신용산래미안점,2.01907E+13,I,21:55.0,197011,447404,,126.967286635521,37.5294521104102
177,3020000,PHMH320193020033087500015,20190715,1,영업/정상,13,영업중,,,,서울특별시 용산구 백범로 313 지하3층 112호 (효창동 용산 롯데캐슬 센터포레),4317,지에스(GS)25 효창센터포레,2.01907E+13,I,21:41.0,196743.2515,448507.4874,,126.963893163208,37.5401606689636
178,3020000,PHMH320193020033087500016,20190723,1,영업/정상,13,영업중,,,서울특별시 용산구 한강로3가 65번지 193호 알베로 소망마트,서울특별시 용산구 한강대로10길 13 1층 (한강로3가),4389,씨유 용산히트점,2.01907E+13,I,21:44.0,196769.2052,446862.8886,,126.96424518017,37.5239830070735
179,3020000,PHMH320193020033087500017,20190916,1,영업/정상,13,영업중,,,서울특별시 용산구 용문동 23번지 4호 최치과의원,서울특별시 용산구 새창로 126 1층 (용문동),4363,지에스(GS)25 용문시장점,2.01909E+13,I,22:32.0,196467.185,448230.786,,126.960810757042,37.5363270720403
180,3020000,PHMH320193020033087500018,20190925,1,영업/정상,13,영업중,,,,서울특별시 용산구 녹사평대로 234 101호 (이태원동),4343,지에스25용산경리단점,2.01909E+13,I,22:37.0,198796.2278,448486.7575,60.6,126.987158882202,37.5384995177036
181,3020000,PHMH320193020033087500019,20191002,1,영업/정상,13,영업중,02-771-6216,,,서울특별시 용산구 한강대로102길 12 (갈월동),4334,지에스25 동자제일점,2.0191E+13,I,22:43.0,197515.5589,449721.0827,166.99,126.972673108301,37.5497566751885
182,3020000,PHMH320193020033087500020,20191007,1,영업/정상,13,영업중,,,서울특별시 용산구 갈월동 10번지 한성빌딩별관,서울특별시 용산구 한강대로 328 1층 (갈월동),4334,지에스25  갈월하늘점,2.0191E+13,I,22:46.0,197464.5758,449478.229,49.5,126.972105005201,37.547541324157
183,3020000,PHMH320193020033087500021,20191011,1,영업/정상,13,영업중,,,,서울특별시 용산구 장문로 119 1층 (보광동),4415,씨유용산보광점,2.0191E+13,I,22:48.0,200151.6777,447207.6,23.14,127.002471885101,37.5270671907508
184,3020000,PHMH320193020033087500022,20191106,1,영업/정상,13,영업중,,,,서울특별시 용산구 원효로71길 30 용문빌딩 1층 (용문동),4364,씨유 효창공원역점,2.01911E+13,I,23:09.0,196708.1607,448437.2005,6.06,126.963521697072,37.5381916945458
185,3020000,PHMH320203020033087500001,20200108,1,영업/정상,13,영업중,790-8767,,,서울특별시 용산구 독서당로 77 2층 (한남동),4419,용산한남점GS25,2.02001E+13,I,23:25.0,200731.2303,448000.5903,50,127.009058881789,37.5342615973241
186,3020000,PHMH320203020033087500002,20200219,1,영업/정상,13,영업중,02-3273-1364,,서울특별시 용산구 도원동 8번지 24호,서울특별시 용산구 새창로12길 4 1층 (도원동),4356,씨유 도원삼성점,2.02002E+13,I,23:23.0,196211.2872,448572.362,39.6,126.957936164645,37.5393999553182
187,3020000,PHMH320203020033087500003,20200220,1,영업/정상,13,영업중,,,,서울특별시 용산구 이태원로27길 13 (이태원동),4350,씨유 이태원프리덤점,2.02002E+13,I,23:23.0,199494.2406,448102.144,231.79,126.995055884276,37.5351805202355
188,3020000,PHMH320203020033087500004,20200305,1,영업/정상,13,영업중,,,서울특별시 용산구 후암동 117번지 1호,서울특별시 용산구 한강대로104라길 39 지층 (후암동),4333,세븐일레븐 용산후암카페점,2.02003E+13,I,23:22.0,197808.6488,449659.0262,90,126.975994860793,37.5491822514344
189,3020000,PHMH320203020033087500005,20200527,1,영업/정상,13,영업중,,,서울특별시 용산구 후암동 79번지,서울특별시 용산구 후암로 59 1층 (후암동),4325,세븐일레븐 후암광장카페점,2.02005E+13,I,23:19.0,197882.6216,449867.9767,70,126.976849683464,37.5510901421972
190,3020000,PHMH320203020033087500006,20200624,1,영업/정상,13,영업중,070-7707-2937,,서울특별시 용산구 용산동2가 37번지 3호,서울특별시 용산구 신흥로11길 1 (용산동2가),4338,이마트24 R해방촌점,2.02006E+13,I,07:00.0,198825.3421,448967.2749,,126.987498311219,37.5429661042056
191,3020000,PHMH320203020033087500007,20200625,1,영업/정상,13,영업중,02-711-0917,,서울특별시 용산구 이촌동 199번지 50호,서울특별시 용산구 이촌로22길 19 1층 (이촌동),4374,지에스25 이촌대림점,2.02006E+13,I,07:00.0,196018.516,446992.7304,,126.955762962368,37.5251711451193
192,3020000,PHMH320203020033087500008,20200716,1,영업/정상,13,영업중,,,,서울특별시 용산구 한남대로 158 102호 (한남동),4417,지에스25  한남행복,2.02007E+13,I,08:00.0,200167.6782,448907.4065,,127.002706414658,37.542454266
